{"pageId":26,"pageSize":500,"recordCount":175,"recordCountTotal":10058,"results":[{"id":10827,"locationId":"461152","name":"Gongju, South Korea - 58 Nonsan Cheonan Expressway","status":"OPEN","address":{"street":"58 Nonsan Cheonan Expressway","city":"Gongju","state":"Chungcheongnam","zip":"32513","countryId":137,"country":"South Korea","regionId":102,"region":"Asia Pacific"},"gps":{"latitude":36.568583,"longitude":127.114253},"dateOpened":"2025-12-31","stallCount":8,"counted":true,"elevationMeters":89,"powerKilowatt":325,"solarCanopy":false,"battery":false,"otherEVs":true,"statusDays":0,"urlDiscuss":true,"stalls":{"v4":8},"plugs":{"other":8},"parkingId":1},{"id":10825,"locationId":"461102","name":"Gongju, South Korea - 27 Nonsan Cheonan Expressway","status":"OPEN","address":{"street":"27 Nonsan Cheonan Expressway","city":"Gongju","state":"Chungcheongnam","zip":"32610","countryId":137,"country":"South Korea","regionId":102,"region":"Asia Pacific"},"gps":{"latitude":36.320066,"longitude":127.070771},"dateOpened":"2025-12-31","stallCount":8,"counted":true,"elevationMeters":66,"powerKilowatt":325,"solarCanopy":false,"battery":false,"otherEVs":true,"statusDays":0,"urlDiscuss":true,"stalls":{"v4":8},"plugs":{"tpc":8,"ccs1":8,"multi":8},"parkingId":1},{"id":10830,"locationId":"32971","name":"Pyeongchang-gun, South Korea - Tapgeori-gil","status":"OPEN","address":{"street":"63 Tapgeori-gil","city":"Pyeongchang-gun","state":"Gangwon-do","zip":"25314","countryId":137,"country":"South Korea","regionId":102,"region":"Asia Pacific"},"gps":{"latitude":37.609702,"longitude":128.463859},"dateOpened":"2025-12-30","stallCount":8,"counted":true,"elevationMeters":591,"powerKilowatt":325,"solarCanopy":false,"battery":false,"otherEVs":true,"statusDays":0,"urlDiscuss":true,"stalls":{"v4":8},"plugs":{"nacs":8,"ccs1":8,"multi":8},"facilityName":"평창휴게소(인천방향)"},{"id":8556,"locationId":"31762","name":"Ansan, South Korea - Gwangdeok4","status":"OPEN","address":{"street":"237 Gwangdeok4-ro","city":"Ansan","state":"Gyeonggi","zip":"15464","countryId":137,"country":"South Korea","regionId":102,"region":"Asia Pacific"},"gps":{"latitude":37.315449,"longitude":126.838271},"dateOpened":"2025-12-24","stallCount":8,"counted":true,"elevationMeters":6,"powerKilowatt":250,"solarCanopy":false,"battery":false,"otherEVs":true,"statusDays":0,"urlDiscuss":true,"stalls":{"other":8},"plugs":{"nacs":8,"ccs1":8,"multi":8}},{"id":9308,"locationId":"32990","name":"Sokcho-si, South Korea - Joyang-dong","status":"OPEN","address":{"street":"1556-6 Joyang-dong","city":"Sokcho","state":"Gangwon","zip":"217-080","countryId":137,"country":"South Korea","regionId":102,"region":"Asia Pacific"},"gps":{"latitude":38.191518,"longitude":128.591151},"dateOpened":"2025-11-08","stallCount":4,"counted":true,"elevationMeters":2,"powerKilowatt":250,"solarCanopy":false,"battery":false,"otherEVs":true,"statusDays":0,"urlDiscuss":false,"stalls":{"other":4},"plugs":{"tpc":4,"ccs1":4,"multi":4}},{"id":10046,"locationId":"451014","name":"Gapyeong, South Korea - Gapyeong Rest Area (Seoul)","status":"OPEN","address":{"street":"544 Misari-ro","city":"Gapyeong","state":"Gyeonggi","zip":"12462","countryId":137,"country":"South Korea","regionId":102,"region":"Asia Pacific"},"gps":{"latitude":37.700836,"longitude":127.543466},"dateOpened":"2025-06-27","stallCount":3,"counted":true,"elevationMeters":141,"powerKilowatt":250,"solarCanopy":false,"battery":false,"otherEVs":true,"statusDays":0,"urlDiscuss":false,"stalls":{"v4":3,"accessible":0,"trailerFriendly":0},"plugs":{"nacs":3,"ccs1":3,"multi":3},"parkingId":1},{"id":10045,"locationId":"450961","name":"Gapyeong, South Korea - Gapyeong Rest Area (Chuncheon)","status":"OPEN","address":{"street":"511 Misari-ro","city":"Gapyeong","state":"Gyeonggi","zip":"12462","countryId":137,"country":"South Korea","regionId":102,"region":"Asia Pacific"},"gps":{"latitude":37.702704,"longitude":127.546767},"dateOpened":"2025-06-27","stallCount":3,"counted":true,"elevationMeters":157,"powerKilowatt":250,"solarCanopy":false,"battery":false,"otherEVs":true,"statusDays":0,"urlDiscuss":false,"stalls":{"v4":3,"accessible":0,"trailerFriendly":0},"plugs":{"nacs":3,"ccs1":3,"multi":3},"parkingId":1},{"id":10010,"locationId":"31815","name":"Cheonan, South Korea - Moda Outlet","status":"OPEN","address":{"street":"196 Gongwon-ro","city":"Cheonan","state":"Chungcheongnam","zip":"31168","countryId":137,"country":"South Korea","regionId":102,"region":"Asia Pacific"},"gps":{"latitude":36.79848,"longitude":127.101534},"dateOpened":"2025-06-13","stallCount":6,"counted":true,"elevationMeters":30,"powerKilowatt":250,"solarCanopy":false,"battery":false,"otherEVs":true,"statusDays":0,"urlDiscuss":true,"stalls":{"v3":6,"trailerFriendly":0},"plugs":{"tpc":6,"ccs1":6,"multi":6},"facilityName":"Moda Outlet"},{"id":10008,"locationId":"31719","name":"Daejeon, South Korea - Moda Outlet","status":"OPEN","address":{"street":"5, Daejeong-ro","city":"Daejeon","state":"Daejeon","zip":"34219","countryId":137,"country":"South Korea","regionId":102,"region":"Asia Pacific"},"gps":{"latitude":36.312761,"longitude":127.318712},"dateOpened":"2025-06-13","stallCount":4,"counted":true,"elevationMeters":61,"powerKilowatt":250,"solarCanopy":false,"battery":false,"otherEVs":true,"statusDays":0,"urlDiscuss":true,"stalls":{"v3":4,"trailerFriendly":0},"plugs":{"tpc":4,"ccs1":4,"multi":4},"facilityName":"Moda Outlet"},{"id":9309,"locationId":"32978","name":"Daejeon, South Korea - Convention Center","status":"OPEN","address":{"street":"107 Expo-ro","city":"Daejeon","state":"Daejeon","zip":"34125","countryId":137,"country":"South Korea","regionId":102,"region":"Asia Pacific"},"gps":{"latitude":36.37512,"longitude":127.391838},"dateOpened":"2024-12-27","stallCount":4,"counted":true,"elevationMeters":40,"powerKilowatt":250,"solarCanopy":false,"battery":false,"otherEVs":true,"statusDays":0,"urlDiscuss":true,"stalls":{"v3":4},"plugs":{"tpc":4,"ccs1":4,"multi":4}},{"id":9310,"locationId":"447004","name":"Gimhae, South Korea - JinYeong Complex Rest Area (Busan)","status":"OPEN","address":{"street":"94-4 Hagye-ro 96 beon-gil Jinyeong-eup","city":"Gimhae","state":"Gyeongsangnam","zip":"50871","countryId":137,"country":"South Korea","regionId":102,"region":"Asia Pacific"},"gps":{"latitude":35.277662,"longitude":128.714763},"dateOpened":"2024-12-02","stallCount":8,"counted":true,"elevationMeters":26,"powerKilowatt":250,"solarCanopy":false,"battery":false,"otherEVs":false,"statusDays":0,"urlDiscuss":true,"stalls":{"v3":8},"plugs":{"tpc":8,"ccs1":8,"multi":8}},{"id":9109,"locationId":"59442","name":"Seoul, South Korea - Construction Building","status":"OPEN","address":{"street":"711 Eonju-ro","city":"Seoul","state":"Seoul","zip":"06050","countryId":137,"country":"South Korea","regionId":102,"region":"Asia Pacific"},"gps":{"latitude":37.517491,"longitude":127.033655},"dateOpened":"2024-10-14","stallCount":9,"counted":true,"elevationMeters":34,"powerKilowatt":250,"solarCanopy":false,"battery":false,"otherEVs":true,"statusDays":0,"urlDiscuss":true,"stalls":{"v3":9},"plugs":{"tpc":9,"ccs1":9,"multi":9}},{"id":8555,"locationId":"31835","name":"Seoul, South Korea - Joongrang","status":"OPEN","address":{"street":"353 353, Mangu-ro","city":"Seoul","state":"Seoul","zip":"02087","countryId":137,"country":"South Korea","regionId":102,"region":"Asia Pacific"},"gps":{"latitude":37.597782,"longitude":127.089543},"dateOpened":"2024-10-08","stallCount":4,"counted":true,"elevationMeters":20,"powerKilowatt":250,"solarCanopy":false,"battery":false,"otherEVs":true,"statusDays":0,"urlDiscuss":true,"stalls":{"v3":4},"plugs":{"tpc":4,"ccs1":4,"multi":4}},{"id":8065,"locationId":"31740","name":"Osan, South Korea - Moda Outlet","status":"OPEN","address":{"street":"822-22 Gyeonggidaero","city":"Osan","state":"Gyeonggi","zip":null,"countryId":137,"country":"South Korea","regionId":102,"region":"Asia Pacific"},"gps":{"latitude":37.192775,"longitude":127.046176},"dateOpened":"2024-05-27","stallCount":6,"counted":true,"elevationMeters":38,"powerKilowatt":250,"solarCanopy":false,"battery":false,"otherEVs":true,"statusDays":0,"urlDiscuss":false,"stalls":{"v3":6},"plugs":{"tpc":6,"nacs":0,"ccs1":6,"multi":6}},{"id":7963,"locationId":"teslaseoulseongsub","name":"Seoul, South Korea - Factorial Seongsu","status":"OPEN","address":{"street":"47 Seongsuillo 6(yuk)-gil","city":"Seoul","state":"Seoul","zip":null,"countryId":137,"country":"South Korea","regionId":102,"region":"Asia Pacific"},"gps":{"latitude":37.54427,"longitude":127.05426},"dateOpened":"2024-04-25","stallCount":3,"counted":true,"elevationMeters":11,"powerKilowatt":250,"solarCanopy":false,"battery":false,"otherEVs":true,"statusDays":0,"urlDiscuss":false,"stalls":{"v3":3,"accessible":0,"trailerFriendly":0},"plugs":{"tpc":3,"nacs":0,"ccs1":3,"multi":3}},{"id":7829,"locationId":"31859","name":"Suwon, South Korea - AK Plaza","status":"OPEN","address":{"street":"924, Deogyeong, Paldal","city":"Suwon","state":"Gyeonggi","zip":"16622","countryId":137,"country":"South Korea","regionId":102,"region":"Asia Pacific"},"gps":{"latitude":37.266222,"longitude":126.999965},"dateOpened":"2024-04-01","stallCount":6,"counted":true,"elevationMeters":33,"powerKilowatt":250,"solarCanopy":false,"battery":false,"otherEVs":true,"statusDays":0,"urlDiscuss":false,"stalls":{"v3":6},"plugs":{"tpc":6,"nacs":0,"ccs1":6,"multi":6}},{"id":7695,"locationId":"teslagyeongjub","name":"Gyeongju, South Korea - Silla Myeongga","status":"OPEN","address":{"street":"Gyeongju-si Top-dong 676-1 38173","city":"Gyeongju","state":"Gyeongsangbuk","zip":null,"countryId":137,"country":"South Korea","regionId":102,"region":"Asia Pacific"},"gps":{"latitude":35.820671,"longitude":129.213713},"dateOpened":"2024-03-09","stallCount":8,"counted":true,"elevationMeters":48,"powerKilowatt":250,"solarCanopy":false,"battery":false,"otherEVs":true,"statusDays":0,"urlDiscuss":true,"stalls":{"v3":8},"plugs":{"tpc":8,"nacs":0,"ccs1":8,"multi":8}},{"id":7655,"locationId":"33019","name":"Pyeongtaek, South Korea - AK Plaza","status":"OPEN","address":{"street":"Pyeongtaek-ro 51 17917","city":"Pyeongtaek-si","state":"Gyeonggi","zip":null,"countryId":137,"country":"South Korea","regionId":102,"region":"Asia Pacific"},"gps":{"latitude":36.990885,"longitude":127.085787},"dateOpened":"2024-02-25","stallCount":6,"counted":true,"elevationMeters":9,"powerKilowatt":250,"solarCanopy":false,"battery":false,"otherEVs":true,"statusDays":0,"urlDiscuss":true,"stalls":{"v3":6},"plugs":{"tpc":6,"nacs":0,"ccs1":6,"multi":6}},{"id":7656,"locationId":"31714","name":"Gimhae, South Korea - Juchon","status":"OPEN","address":{"street":"1566-3 Cheongok-ri","city":"Gimhae","state":"Gyeongsangnam","zip":null,"countryId":137,"country":"South Korea","regionId":102,"region":"Asia Pacific"},"gps":{"latitude":35.230549,"longitude":128.841514},"dateOpened":"2024-02-25","stallCount":8,"counted":true,"elevationMeters":1,"powerKilowatt":250,"solarCanopy":false,"battery":false,"otherEVs":true,"statusDays":0,"urlDiscuss":true,"stalls":{"v3":8},"plugs":{"tpc":8,"nacs":0,"ccs1":8,"multi":8}},{"id":7619,"locationId":"32562","name":"Incheon, South Korea - Moda Outlet","status":"OPEN","address":{"street":"Incheon Bukhangro 32 beonan-gil 50 22769","city":"Icheon","state":"Gyeonggi","zip":"17406","countryId":137,"country":"South Korea","regionId":102,"region":"Asia Pacific"},"gps":{"latitude":37.512593,"longitude":126.647902},"dateOpened":"2024-02-16","stallCount":4,"counted":true,"elevationMeters":7,"powerKilowatt":250,"solarCanopy":false,"battery":false,"otherEVs":true,"statusDays":0,"urlDiscuss":false,"stalls":{"v3":4},"plugs":{"tpc":4,"nacs":0,"ccs1":4,"multi":4}},{"id":7435,"locationId":"32984","name":"Jeonju, South Korea - Migok Roastery","status":"OPEN","address":{"street":"Jeonju-si Geumsang-gil, Deokjin-gu 10","city":"Jeonju-si","state":"Jeollabuk","zip":"55026","countryId":137,"country":"South Korea","regionId":102,"region":"Asia Pacific"},"gps":{"latitude":35.841904,"longitude":127.173897},"dateOpened":"2024-01-16","stallCount":4,"counted":true,"elevationMeters":60,"powerKilowatt":250,"solarCanopy":false,"battery":false,"otherEVs":true,"statusDays":0,"urlDiscuss":true,"stalls":{"v3":4},"plugs":{"tpc":4,"nacs":0,"ccs1":4,"multi":4}},{"id":7396,"locationId":"Uijeongbu-Woorinara","name":"Uijeongbu, South Korea - Jangam Woorinara","status":"OPEN","address":{"street":"Euijeongbu Dongil-ro 128 Beon-gil 11","city":"Uijeongbu","state":"Gyeonggi","zip":"11725","countryId":137,"country":"South Korea","regionId":102,"region":"Asia Pacific"},"gps":{"latitude":37.700357,"longitude":127.056056},"dateOpened":"2024-01-06","stallCount":6,"counted":true,"elevationMeters":40,"powerKilowatt":250,"solarCanopy":false,"battery":false,"otherEVs":true,"statusDays":0,"urlDiscuss":true,"stalls":{"v3":6},"plugs":{"tpc":6,"nacs":0,"ccs1":6,"multi":6}},{"id":7366,"locationId":"34605","name":"Wonju, South Korea - AK Plaza","status":"OPEN","address":{"street":"1 26437 Bonghwa, Wonju","city":"Wonju","state":"Gangwon","zip":null,"countryId":137,"country":"South Korea","regionId":102,"region":"Asia Pacific"},"gps":{"latitude":37.345633,"longitude":127.927647},"dateOpened":"2024-01-02","stallCount":9,"counted":true,"elevationMeters":161,"powerKilowatt":250,"solarCanopy":false,"battery":false,"otherEVs":true,"statusDays":0,"urlDiscuss":false,"stalls":{"v3":9},"plugs":{"tpc":9,"nacs":0,"ccs1":9,"multi":9}},{"id":7361,"locationId":"31782","name":"Seongnam, South Korea - Bundang Korea Job World","status":"OPEN","address":{"street":"Seongnam-si Bundangsuseo-ro 501 13553","city":"Seongnam","state":"Gyeonggi","zip":null,"countryId":137,"country":"South Korea","regionId":102,"region":"Asia Pacific"},"gps":{"latitude":37.377561,"longitude":127.105285},"dateOpened":"2023-12-29","stallCount":8,"counted":true,"elevationMeters":50,"powerKilowatt":250,"solarCanopy":false,"battery":false,"otherEVs":true,"statusDays":0,"urlDiscuss":true,"stalls":{"v3":8},"plugs":{"tpc":8,"nacs":0,"ccs1":8,"multi":8}},{"id":7229,"locationId":"32985","name":"Yangyang, South Korea - Mulchi Port","status":"OPEN","address":{"street":"3594 Donghae-daero","city":"Yangyang","state":"Gangwon-do","zip":"25061","countryId":137,"country":"South Korea","regionId":102,"region":"Asia Pacific"},"gps":{"latitude":38.157992,"longitude":128.609508},"dateOpened":"2023-11-30","stallCount":6,"counted":true,"elevationMeters":7,"powerKilowatt":250,"solarCanopy":false,"battery":false,"otherEVs":true,"statusDays":0,"urlDiscuss":true,"stalls":{"v3":6},"plugs":{"tpc":6,"nacs":0,"ccs1":6,"multi":6}},{"id":7228,"locationId":"seocheongjureindeercoffee","name":"Cheongju, South Korea - Gangseo","status":"OPEN","address":{"street":"Gaposan-ro 191","city":"Cheonju-si","state":"Chungcheongbuk-do","zip":"28381","countryId":137,"country":"South Korea","regionId":102,"region":"Asia Pacific"},"gps":{"latitude":36.615622,"longitude":127.421102},"dateOpened":"2023-11-30","stallCount":12,"counted":true,"elevationMeters":62,"powerKilowatt":250,"solarCanopy":false,"battery":false,"otherEVs":true,"statusDays":0,"urlDiscuss":true,"stalls":{"v3":12},"plugs":{"tpc":12,"nacs":0,"ccs1":12,"multi":12}},{"id":7212,"locationId":"34658","name":"Yongin, South Korea - Yangji Logistic","status":"OPEN","address":{"street":"Yongin 924 Yangji 924 17158","city":"Yongin","state":"Gyeonggi","zip":"17158","countryId":137,"country":"South Korea","regionId":102,"region":"Asia Pacific"},"gps":{"latitude":37.230118,"longitude":127.297972},"dateOpened":"2023-11-23","stallCount":8,"counted":true,"elevationMeters":160,"powerKilowatt":250,"solarCanopy":false,"battery":false,"otherEVs":true,"statusDays":0,"urlDiscuss":false,"stalls":{"v3":8},"plugs":{"tpc":8,"nacs":0,"ccs1":8,"multi":8}},{"id":7211,"locationId":"31748","name":"Gwangju, South Korea - U Square","status":"OPEN","address":{"street":"Gwangju Mujin-daero 904 61937","city":"Gwangsan-gu","state":"Gwangju","zip":"61937","countryId":137,"country":"South Korea","regionId":102,"region":"Asia Pacific"},"gps":{"latitude":35.15985,"longitude":126.881908},"dateOpened":"2023-11-23","stallCount":6,"counted":true,"elevationMeters":31,"powerKilowatt":250,"solarCanopy":false,"battery":false,"otherEVs":true,"statusDays":0,"urlDiscuss":false,"stalls":{"v3":6},"plugs":{"tpc":6,"nacs":0,"ccs1":6,"multi":6}},{"id":7146,"locationId":"32543","name":"Incheon, South Korea - Yeonsu","status":"OPEN","address":{"street":"Yeonsu-gu Neungheodae-ro 16 21959","city":"Incheon","state":"Incheon","zip":null,"countryId":137,"country":"South Korea","regionId":102,"region":"Asia Pacific"},"gps":{"latitude":37.429588,"longitude":126.636677},"dateOpened":"2023-11-16","stallCount":6,"counted":true,"elevationMeters":7,"powerKilowatt":250,"solarCanopy":false,"battery":false,"otherEVs":true,"statusDays":0,"urlDiscuss":true,"stalls":{"v3":6},"plugs":{"tpc":6,"nacs":0,"ccs1":6,"multi":6},"addressNotes":"1000th supercharger stall in South Korea\r\nSpecial Stall artwork"},{"id":6934,"locationId":"33632","name":"Yeongwol, South Korea","status":"OPEN","address":{"street":"Yeongwol-gun Bangjeol-ri 782 230887 Yeongwol-eup","city":"Yeongwol","state":"Gangwon","zip":null,"countryId":137,"country":"South Korea","regionId":102,"region":"Asia Pacific"},"gps":{"latitude":37.179905,"longitude":128.447073},"dateOpened":"2023-09-26","stallCount":8,"counted":true,"elevationMeters":203,"powerKilowatt":250,"solarCanopy":false,"battery":false,"otherEVs":true,"statusDays":0,"urlDiscuss":false,"stalls":{"v3":8},"plugs":{"tpc":8,"nacs":0,"ccs1":8,"multi":8}},{"id":6881,"locationId":"Namyangjuhwadothisplane","name":"Namyangju, South Korea - Hwado This Plane","status":"OPEN","address":{"street":"Namyangju Soraebi-ro, Hwado-eup 48-24 12163 Hwado-eup","city":"Namyangju","state":"Gyeonggi","zip":null,"countryId":137,"country":"South Korea","regionId":102,"region":"Asia Pacific"},"gps":{"latitude":37.653969,"longitude":127.319334},"dateOpened":"2023-09-11","stallCount":6,"counted":true,"elevationMeters":111,"powerKilowatt":250,"solarCanopy":false,"battery":false,"otherEVs":true,"statusDays":0,"urlDiscuss":false,"stalls":{"v3":6},"plugs":{"tpc":6,"nacs":0,"ccs1":6,"multi":6}},{"id":6853,"locationId":"31707","name":"Seoul, South Korea - Gangdong DM Square","status":"OPEN","address":{"street":"Seoul Godeok-dong 93-2 Godeok-dong","city":"Seoul","state":"Seoul","zip":null,"countryId":137,"country":"South Korea","regionId":102,"region":"Asia Pacific"},"gps":{"latitude":37.567746,"longitude":127.160203},"dateOpened":"2023-09-06","stallCount":9,"counted":true,"elevationMeters":14,"powerKilowatt":250,"solarCanopy":false,"battery":false,"otherEVs":true,"statusDays":0,"urlDiscuss":true,"stalls":{"v3":9},"plugs":{"tpc":9,"nacs":0,"ccs1":9,"multi":9}},{"id":6672,"locationId":"4005124","name":"Jangheung, South Korea - Water Science Museum","status":"OPEN","address":{"street":"Jangheung Haengwongangbyeon-gil 20 59313","city":"Jangheung","state":"South Jeolla","zip":"59313","countryId":137,"country":"South Korea","regionId":102,"region":"Asia Pacific"},"gps":{"latitude":34.686475,"longitude":126.89945},"dateOpened":"2023-07-27","stallCount":8,"counted":true,"elevationMeters":24,"powerKilowatt":250,"solarCanopy":false,"battery":false,"otherEVs":true,"statusDays":0,"urlDiscuss":true,"stalls":{"v3":8},"plugs":{"tpc":8,"nacs":0,"ccs1":8,"multi":8}},{"id":6629,"locationId":"31718","name":"Yongin, South Korea - Pogok","status":"OPEN","address":{"street":"Yongin-si Seokseong-ro 1051 17025 Pogok-eup","city":"Yongin","state":"Gyeonggi","zip":"17025","countryId":137,"country":"South Korea","regionId":102,"region":"Asia Pacific"},"gps":{"latitude":37.275137,"longitude":127.212324},"dateOpened":"2023-07-17","stallCount":8,"counted":true,"elevationMeters":74,"powerKilowatt":250,"solarCanopy":false,"battery":false,"otherEVs":true,"statusDays":0,"urlDiscuss":false,"stalls":{"v3":8},"plugs":{"tpc":8,"nacs":0,"ccs1":8,"multi":8}},{"id":6621,"locationId":"31864","name":"Ulsan, South Korea - Moda Outlet","status":"OPEN","address":{"street":"Ulsan 78-6, Jinjangyutong-ro 78-6 44248","city":"Ulsan","state":"Ulsan","zip":"44248","countryId":137,"country":"South Korea","regionId":102,"region":"Asia Pacific"},"gps":{"latitude":35.577132,"longitude":129.357187},"dateOpened":"2023-07-17","stallCount":6,"counted":true,"elevationMeters":7,"powerKilowatt":250,"solarCanopy":false,"battery":false,"otherEVs":true,"statusDays":0,"urlDiscuss":false,"stalls":{"v3":6},"plugs":{"tpc":6,"nacs":0,"ccs1":6,"multi":6}},{"id":6583,"locationId":"4005316","name":"Ganghwa, South Korea - Seaside Resort","status":"OPEN","address":{"street":"Ganghwa Jangheung-ro 217 23052 Gilsang-myeon","city":"Ganghwa","state":"Incheon","zip":"23052","countryId":137,"country":"South Korea","regionId":102,"region":"Asia Pacific"},"gps":{"latitude":37.617667,"longitude":126.498967},"dateOpened":"2023-07-14","stallCount":8,"counted":true,"elevationMeters":39,"powerKilowatt":250,"solarCanopy":false,"battery":false,"otherEVs":true,"statusDays":0,"urlDiscuss":false,"stalls":{"v3":8},"plugs":{"tpc":8,"nacs":0,"ccs1":8,"multi":8}},{"id":6552,"locationId":"33633","name":"Taebaek, South Korea","status":"OPEN","address":{"street":"Taebaek Pyeonghwa-gil 15 26047","city":"Taebaek","state":"Gangwon","zip":"26047","countryId":137,"country":"South Korea","regionId":102,"region":"Asia Pacific"},"gps":{"latitude":37.099323,"longitude":129.022323},"dateOpened":"2023-07-06","stallCount":8,"counted":true,"elevationMeters":575,"powerKilowatt":250,"solarCanopy":false,"battery":false,"otherEVs":true,"statusDays":0,"urlDiscuss":false,"stalls":{"v3":8},"plugs":{"tpc":8,"nacs":0,"ccs1":8,"multi":8}},{"id":6502,"locationId":"31754","name":"Seoul, South Korea - Jonggak","status":"OPEN","address":{"street":"Seoul Gongpyeong-dong 5-1","city":"Seoul","state":"Seoul","zip":null,"countryId":137,"country":"South Korea","regionId":102,"region":"Asia Pacific"},"gps":{"latitude":37.571692,"longitude":126.983398},"dateOpened":"2023-06-26","stallCount":6,"counted":true,"elevationMeters":27,"powerKilowatt":250,"solarCanopy":false,"battery":false,"otherEVs":true,"statusDays":0,"urlDiscuss":true,"stalls":{"v3":6},"plugs":{"tpc":6,"nacs":0,"ccs1":6,"multi":6},"plugshareId":535897},{"id":6449,"locationId":"31746","name":"Jinju, South Korea - Moda Outlet","status":"OPEN","address":{"street":"Jinju Samil-ro 95beon-gil 46 52845 Jeongchon-myeon","city":"Jinju","state":"Gyeongsangnam","zip":null,"countryId":137,"country":"South Korea","regionId":102,"region":"Asia Pacific"},"gps":{"latitude":35.132783,"longitude":128.098612},"dateOpened":"2023-06-13","stallCount":6,"counted":true,"elevationMeters":27,"powerKilowatt":250,"solarCanopy":false,"battery":false,"otherEVs":true,"statusDays":0,"urlDiscuss":false,"stalls":{"v3":6},"plugs":{"tpc":6,"nacs":0,"ccs1":6,"multi":6}},{"id":6405,"locationId":"31832","name":"Wanju, South Korea","status":"OPEN","address":{"street":"Wanju-gun Bongbi-ro Bongdong-eup 23 55313","city":"Wanju","state":"Jeonbuk","zip":"55313","countryId":137,"country":"South Korea","regionId":102,"region":"Asia Pacific"},"gps":{"latitude":35.989006,"longitude":127.118677},"dateOpened":"2023-06-05","stallCount":8,"counted":true,"elevationMeters":61,"powerKilowatt":250,"solarCanopy":false,"battery":false,"otherEVs":true,"statusDays":0,"urlDiscuss":false,"stalls":{"v3":8},"plugs":{"tpc":8,"nacs":0,"ccs1":8,"multi":8}},{"id":6392,"locationId":"31739","name":"Busan, South Korea - Hadan Artmalling","status":"OPEN","address":{"street":"Busan Nakdongnam-ro 1413 49311","city":"Busan","state":"Busan","zip":"49311","countryId":137,"country":"South Korea","regionId":102,"region":"Asia Pacific"},"gps":{"latitude":35.106825,"longitude":128.966344},"dateOpened":"2023-06-02","stallCount":6,"counted":true,"elevationMeters":3,"powerKilowatt":250,"solarCanopy":false,"battery":false,"otherEVs":true,"statusDays":0,"urlDiscuss":true,"stalls":{"v3":6},"plugs":{"tpc":6,"nacs":0,"ccs1":6,"multi":6}},{"id":6394,"locationId":"32964","name":"Hwaseong, South Korea - Dongtan Granvia Star","status":"OPEN","address":{"street":"Hwaseong-si Dongtandaero 446 18482 Dongtandaero","city":"Hwaseong","state":"Gyeonggi","zip":"18482","countryId":137,"country":"South Korea","regionId":102,"region":"Asia Pacific"},"gps":{"latitude":37.193989,"longitude":127.100422},"dateOpened":"2023-06-02","stallCount":9,"counted":true,"elevationMeters":38,"powerKilowatt":250,"solarCanopy":false,"battery":false,"otherEVs":true,"statusDays":0,"urlDiscuss":true,"stalls":{"v3":9},"plugs":{"tpc":9,"nacs":0,"ccs1":9,"multi":9}},{"id":6281,"locationId":"31871","name":"Seoul, South Korea - Yongsan Dragon City","status":"OPEN","address":{"street":"Yongsan-gu Cheongpa-ro 20-gil 95 04372","city":"Seoul","state":"Seoul","zip":"04372","countryId":137,"country":"South Korea","regionId":102,"region":"Asia Pacific"},"gps":{"latitude":37.532075,"longitude":126.961448},"dateOpened":"2023-05-12","stallCount":12,"counted":true,"elevationMeters":10,"powerKilowatt":250,"solarCanopy":false,"battery":false,"otherEVs":true,"statusDays":0,"urlDiscuss":false,"stalls":{"v3":12},"plugs":{"tpc":12,"nacs":0,"ccs1":12,"multi":12}},{"id":6242,"locationId":"31771","name":"Daegwallyeong, South Korea","status":"OPEN","address":{"street":"Pyeongchang-gun Gyeonggang-ro 5754 25342 Daegwalnyeong-myeon","city":"Daegwallyeong","state":"Gangwon","zip":"25342","countryId":137,"country":"South Korea","regionId":102,"region":"Asia Pacific"},"gps":{"latitude":37.685276,"longitude":128.757475},"dateOpened":"2023-05-04","stallCount":8,"counted":true,"elevationMeters":831,"powerKilowatt":250,"solarCanopy":false,"battery":false,"otherEVs":true,"statusDays":0,"urlDiscuss":false,"stalls":{"v3":8},"plugs":{"tpc":8,"nacs":0,"ccs1":8,"multi":8}},{"id":6155,"locationId":"31733","name":"Seongnam, South Korea - Bundang AK Plaza","status":"OPEN","address":{"street":"Hwangsaeul-ro 312beon-gil 36 36","city":"Seongnam","state":"Gyeonggi","zip":"13591","countryId":137,"country":"South Korea","regionId":102,"region":"Asia Pacific"},"gps":{"latitude":37.384052,"longitude":127.123452},"dateOpened":"2023-04-14","stallCount":9,"counted":true,"elevationMeters":36,"powerKilowatt":250,"solarCanopy":false,"battery":false,"otherEVs":true,"statusDays":0,"urlDiscuss":false,"stalls":{"v3":9},"plugs":{"tpc":9,"nacs":0,"ccs1":9,"multi":9}},{"id":6131,"locationId":"31723","name":"Eumseong, South Korea - Daeso","status":"OPEN","address":{"street":"Eumseong-gun Daeseong-ro 77beon-gil 25-18","city":"Daeseong","state":"Chungcheongbuk","zip":"27660","countryId":137,"country":"South Korea","regionId":102,"region":"Asia Pacific"},"gps":{"latitude":36.977367,"longitude":127.487175},"dateOpened":"2023-04-08","stallCount":8,"counted":true,"elevationMeters":90,"powerKilowatt":250,"solarCanopy":false,"battery":false,"otherEVs":true,"statusDays":0,"urlDiscuss":false,"stalls":{"v3":8},"plugs":{"tpc":8,"nacs":0,"ccs1":8,"multi":8}},{"id":6109,"locationId":"31726","name":"Andong, South Korea","status":"OPEN","address":{"street":"212-1 Nori, Andong-si","city":"Andong","state":"Gyeongsangbuk","zip":"36621","countryId":137,"country":"South Korea","regionId":102,"region":"Asia Pacific"},"gps":{"latitude":36.591222,"longitude":128.631771},"dateOpened":"2023-04-05","stallCount":6,"counted":true,"elevationMeters":131,"powerKilowatt":250,"solarCanopy":false,"battery":false,"otherEVs":true,"statusDays":0,"urlDiscuss":false,"stalls":{"v3":6},"plugs":{"tpc":6,"nacs":0,"ccs1":6,"multi":6}},{"id":6123,"locationId":"31758","name":"Goyang, South Korea - Haengju","status":"OPEN","address":{"street":"487 Jayu-ro, Goyang-si","city":"Goyang","state":"Gyeonggi","zip":"10440","countryId":137,"country":"South Korea","regionId":102,"region":"Asia Pacific"},"gps":{"latitude":37.603892,"longitude":126.822075},"dateOpened":"2023-04-05","stallCount":6,"counted":true,"elevationMeters":15,"powerKilowatt":250,"solarCanopy":false,"battery":false,"otherEVs":true,"statusDays":0,"urlDiscuss":false,"stalls":{"v3":6},"plugs":{"tpc":6,"nacs":0,"ccs1":6,"multi":6}},{"id":6100,"locationId":"31728","name":"Icheon, South Korea - Termeden","status":"OPEN","address":{"street":"984 Sasil-ro, Icheon-si 17406 Moga-myeon","city":"Icheon","state":"Gyeonggi","zip":"17406","countryId":137,"country":"South Korea","regionId":102,"region":"Asia Pacific"},"gps":{"latitude":37.196185,"longitude":127.446084},"dateOpened":"2023-04-03","stallCount":8,"counted":true,"elevationMeters":85,"powerKilowatt":250,"solarCanopy":false,"battery":false,"otherEVs":true,"statusDays":0,"urlDiscuss":false,"stalls":{"v3":8},"plugs":{"tpc":8,"nacs":0,"ccs1":8,"multi":8}},{"id":6090,"locationId":"32447","name":"Seoul, South Korea - Episode Seocho","status":"OPEN","address":{"street":"Seocho 2-dong, 1338-5 Seocho-dong, Seoul","city":"Seoul","state":"Seoul","zip":null,"countryId":137,"country":"South Korea","regionId":102,"region":"Asia Pacific"},"gps":{"latitude":37.489749,"longitude":127.029875},"dateOpened":"2023-03-30","stallCount":6,"counted":true,"elevationMeters":16,"powerKilowatt":250,"solarCanopy":false,"battery":false,"otherEVs":true,"statusDays":0,"urlDiscuss":false,"stalls":{"v3":6},"plugs":{"tpc":6,"nacs":0,"ccs1":6,"multi":6}},{"id":6079,"locationId":"31741","name":"Hanam, South Korea - Misa","status":"OPEN","address":{"street":"1143 Mangwol-dong, Hanam-si","city":"Hanam","state":"Gyeonggi","zip":"12912","countryId":137,"country":"South Korea","regionId":102,"region":"Asia Pacific"},"gps":{"latitude":37.568233,"longitude":127.196853},"dateOpened":"2023-03-30","stallCount":6,"counted":true,"elevationMeters":24,"powerKilowatt":250,"solarCanopy":false,"battery":false,"otherEVs":true,"statusDays":0,"urlDiscuss":false,"stalls":{"v3":6},"plugs":{"tpc":6,"nacs":0,"ccs1":6,"multi":6}},{"id":6081,"locationId":"31704","name":"Hwaseong, South Korea - Dongtan-West Cafe Astana","status":"OPEN","address":{"street":"Hwaseong-si Hyohaeng-ro 1203-8 18385","city":"Hwaseong","state":"Gyeonggi","zip":"18385","countryId":137,"country":"South Korea","regionId":102,"region":"Asia Pacific"},"gps":{"latitude":37.218821,"longitude":127.054524},"dateOpened":"2023-03-30","stallCount":8,"counted":true,"elevationMeters":44,"powerKilowatt":250,"solarCanopy":false,"battery":false,"otherEVs":true,"statusDays":0,"urlDiscuss":false,"stalls":{"v3":8},"plugs":{"tpc":8,"nacs":0,"ccs1":8,"multi":8}},{"id":6080,"locationId":"31715","name":"Seongnam, South Korea - Seohyun","status":"OPEN","address":{"street":"28 Hwangsaeul-ro 311beon-gil, Seongnam-si","city":"Seongnam","state":"Gyeonggi","zip":null,"countryId":137,"country":"South Korea","regionId":102,"region":"Asia Pacific"},"gps":{"latitude":37.385942,"longitude":127.12055},"dateOpened":"2023-03-30","stallCount":9,"counted":true,"elevationMeters":36,"powerKilowatt":250,"solarCanopy":false,"battery":false,"otherEVs":true,"statusDays":0,"urlDiscuss":false,"stalls":{"v3":9},"plugs":{"tpc":9,"nacs":0,"ccs1":9,"multi":9}},{"id":6058,"locationId":"33026","name":"Haengdamdo Moda Outlet, South Korea","status":"OPEN","address":{"street":"Dangjin-si Seohaean Expressway 276 Sinpyeong-myeon","city":"Dangjin","state":"Chungcheongnam","zip":"31750","countryId":137,"country":"South Korea","regionId":102,"region":"Asia Pacific"},"gps":{"latitude":36.941454,"longitude":126.810368},"dateOpened":"2023-03-26","stallCount":8,"counted":true,"elevationMeters":0,"powerKilowatt":250,"solarCanopy":false,"battery":false,"otherEVs":true,"statusDays":0,"urlDiscuss":false,"stalls":{"v3":8},"plugs":{"tpc":8,"nacs":0,"ccs1":8,"multi":8}},{"id":6057,"locationId":"31866","name":"Seoul, South Korea - Gocheok I Park Mall","status":"OPEN","address":{"street":"Gocheok I'Park Mall 49, Gyeongin-ro 43-gil, Seoul","city":"Seoul","state":"Seoul","zip":"08226","countryId":137,"country":"South Korea","regionId":102,"region":"Asia Pacific"},"gps":{"latitude":37.498202,"longitude":126.860354},"dateOpened":"2023-03-26","stallCount":8,"counted":true,"elevationMeters":12,"powerKilowatt":250,"solarCanopy":false,"battery":false,"otherEVs":true,"statusDays":0,"urlDiscuss":false,"stalls":{"v3":8},"plugs":{"tpc":8,"nacs":0,"ccs1":8,"multi":8}},{"id":6021,"locationId":"31725","name":"Gumi, South Korea - Hyeonggok","status":"OPEN","address":{"street":"74-4 Saemaeul-ro, Gumi-si","city":"Gumi","state":"Gyeongsangbuk","zip":"39316","countryId":137,"country":"South Korea","regionId":102,"region":"Asia Pacific"},"gps":{"latitude":36.108823,"longitude":128.345332},"dateOpened":"2023-03-19","stallCount":8,"counted":true,"elevationMeters":85,"powerKilowatt":250,"solarCanopy":false,"battery":false,"otherEVs":true,"statusDays":0,"urlDiscuss":false,"stalls":{"v3":8},"plugs":{"tpc":8,"nacs":0,"ccs1":8,"multi":8}},{"id":5980,"locationId":"33628","name":"Eumseong, South Korea - Geumwang","status":"OPEN","address":{"street":"1356 Daegeum-ro, Eumseong-gun 27638 Gamgok-myeon","city":"Eumseong","state":"Chungcheongbuk","zip":"27638","countryId":137,"country":"South Korea","regionId":102,"region":"Asia Pacific"},"gps":{"latitude":36.985529,"longitude":127.583869},"dateOpened":"2023-03-10","stallCount":8,"counted":true,"elevationMeters":151,"powerKilowatt":250,"solarCanopy":false,"battery":false,"otherEVs":true,"statusDays":0,"urlDiscuss":false,"stalls":{"v3":8},"plugs":{"tpc":8,"nacs":0,"ccs1":8,"multi":8}},{"id":5940,"locationId":"58507","name":"Donghae, South Korea","status":"OPEN","address":{"street":"361-1 Cheongok-dong, Donghae-si, 25750","city":"Donghae","state":"Gangwon","zip":"25750","countryId":137,"country":"South Korea","regionId":102,"region":"Asia Pacific"},"gps":{"latitude":37.514178,"longitude":129.102874},"dateOpened":"2023-02-27","stallCount":6,"counted":true,"elevationMeters":70,"powerKilowatt":250,"solarCanopy":false,"battery":false,"otherEVs":true,"statusDays":0,"urlDiscuss":false,"stalls":{"v3":6},"plugs":{"tpc":6,"nacs":0,"ccs1":6,"multi":6}},{"id":5938,"locationId":"31729","name":"Yeoju, South Korea - Sun Valley Hotel","status":"OPEN","address":{"street":"Yeonyang-dong, Yeoju-si 414 12634","city":"Yeoju","state":"Gyeonggi","zip":"12634","countryId":137,"country":"South Korea","regionId":102,"region":"Asia Pacific"},"gps":{"latitude":37.292913,"longitude":127.659963},"dateOpened":"2023-02-24","stallCount":6,"counted":true,"elevationMeters":46,"powerKilowatt":250,"solarCanopy":false,"battery":false,"otherEVs":true,"statusDays":0,"urlDiscuss":false,"stalls":{"v3":6},"plugs":{"tpc":6,"nacs":0,"ccs1":6,"multi":6}},{"id":5914,"locationId":"34662","name":"Gwangmyeong, South Korea - Gwangmyeong Station","status":"OPEN","address":{"street":"Gwangmyeong-si Iljik-dong 310-1 14347","city":"Gwangmyeong","state":"Gyeonggi","zip":"14347","countryId":137,"country":"South Korea","regionId":102,"region":"Asia Pacific"},"gps":{"latitude":37.415567,"longitude":126.882563},"dateOpened":"2023-02-19","stallCount":8,"counted":true,"elevationMeters":22,"powerKilowatt":250,"solarCanopy":false,"battery":false,"otherEVs":true,"statusDays":0,"urlDiscuss":false,"stalls":{"v3":8},"plugs":{"tpc":8,"nacs":0,"ccs1":8,"multi":8}},{"id":5814,"locationId":"cheonancentralchurch","name":"Cheonan, South Korea - Central Church","status":"OPEN","address":{"street":"27 Budaejungang-gil, Cheonan","city":"Cheonan","state":"Chungcheongnam","zip":"31080","countryId":137,"country":"South Korea","regionId":102,"region":"Asia Pacific"},"gps":{"latitude":36.841476,"longitude":127.151105},"dateOpened":"2023-01-18","stallCount":6,"counted":true,"elevationMeters":42,"powerKilowatt":250,"solarCanopy":false,"battery":false,"otherEVs":true,"statusDays":0,"urlDiscuss":false,"stalls":{"v3":6},"plugs":{"tpc":6,"nacs":0,"ccs1":6,"multi":6}},{"id":5806,"locationId":"superchargerseongnamakr","name":"Seongnam, South Korea - Pangyo KAKAO Azit","status":"OPEN","address":{"street":"166 Pangyoyeok-ro, Seongnam-si 463-420","city":"Pangyo","state":"Gyeonggi","zip":"463420","countryId":137,"country":"South Korea","regionId":102,"region":"Asia Pacific"},"gps":{"latitude":37.395436,"longitude":127.110314},"dateOpened":"2023-01-16","stallCount":3,"counted":true,"elevationMeters":42,"powerKilowatt":250,"solarCanopy":false,"battery":false,"otherEVs":true,"statusDays":0,"urlDiscuss":false,"stalls":{"v3":3},"plugs":{"tpc":3,"nacs":0,"ccs1":3,"multi":3}},{"id":5763,"locationId":"35990","name":"Samcheok, South Korea","status":"OPEN","address":{"street":"Samcheok-si Donghae-daero 3852 3852","city":"Samcheok","state":"Gangwon","zip":"25930","countryId":137,"country":"South Korea","regionId":102,"region":"Asia Pacific"},"gps":{"latitude":37.429414,"longitude":129.183007},"dateOpened":"2023-01-03","stallCount":6,"counted":true,"elevationMeters":10,"powerKilowatt":250,"solarCanopy":true,"battery":false,"otherEVs":true,"statusDays":0,"urlDiscuss":false,"stalls":{"v3":6,"trailerFriendly":0},"plugs":{"tpc":6,"nacs":0,"ccs1":6,"multi":6}},{"id":5761,"locationId":"Gangneungterarosa","name":"Gangneung, South Korea - Terarosa","status":"OPEN","address":{"street":"Gangneung 25, Hyeoncheon-gil, Gujeong-myeon 25","city":"Gangneung","state":"Gangwon","zip":"25623","countryId":137,"country":"South Korea","regionId":102,"region":"Asia Pacific"},"gps":{"latitude":37.695857,"longitude":128.892696},"dateOpened":"2023-01-03","stallCount":8,"counted":true,"elevationMeters":97,"powerKilowatt":250,"solarCanopy":false,"battery":false,"otherEVs":true,"statusDays":0,"urlDiscuss":false,"stalls":{"v3":8},"plugs":{"tpc":8,"nacs":0,"ccs1":8,"multi":8}},{"id":5765,"locationId":"teslakrincheonyeongjonggrandhyatthoteleast","name":"Incheon, South Korea - Yeongjong Grand Hyatt East","status":"OPEN","address":{"street":"208 Yeongjonghaeannam-ro 321beon-gil, Incheon 22382","city":"Incheon","state":"Gyeonggi","zip":"22382","countryId":137,"country":"South Korea","regionId":102,"region":"Asia Pacific"},"gps":{"latitude":37.440553,"longitude":126.457492},"dateOpened":"2023-01-03","stallCount":3,"counted":true,"elevationMeters":1,"powerKilowatt":250,"solarCanopy":false,"battery":false,"otherEVs":true,"statusDays":0,"urlDiscuss":false,"stalls":{"v3":3},"plugs":{"tpc":3,"nacs":0,"ccs1":3,"multi":3}},{"id":5764,"locationId":"incheonyeongjonggrandhyatthotelwestkr","name":"Incheon, South Korea - Yeongjong Grand Hyatt West","status":"OPEN","address":{"street":"Yeongjonghaeannam-ro 321beon-gil, Incheon","city":"Incheon","state":"Gyeonggi","zip":"22382","countryId":137,"country":"South Korea","regionId":102,"region":"Asia Pacific"},"gps":{"latitude":37.439944,"longitude":126.456153},"dateOpened":"2023-01-03","stallCount":3,"counted":true,"elevationMeters":0,"powerKilowatt":250,"solarCanopy":false,"battery":false,"otherEVs":true,"statusDays":0,"urlDiscuss":false,"stalls":{"v3":3},"plugs":{"tpc":3,"nacs":0,"ccs1":3,"multi":3}},{"id":5762,"locationId":"gangneungsaintjohnshotelkr","name":"Gangneung, South Korea - Saint Johns Hotel","status":"OPEN","address":{"street":"307 Changhae-ro, Gangneung-si","city":"Gangneung","state":"Gangwon","zip":"25467","countryId":137,"country":"South Korea","regionId":102,"region":"Asia Pacific"},"gps":{"latitude":37.79266,"longitude":128.918971},"dateOpened":"2023-01-03","stallCount":6,"counted":true,"elevationMeters":5,"powerKilowatt":250,"solarCanopy":false,"battery":false,"otherEVs":true,"statusDays":0,"urlDiscuss":false,"stalls":{"v3":6},"plugs":{"tpc":6,"nacs":0,"ccs1":6,"multi":6}},{"id":5753,"locationId":"superchargetseouldaechi","name":"Seoul, South Korea - Daechi","status":"OPEN","address":{"street":"416 Yeongdong-daero, Seoul","city":"Seoul","state":"Seoul","zip":"06176","countryId":137,"country":"South Korea","regionId":102,"region":"Asia Pacific"},"gps":{"latitude":37.506953,"longitude":127.065521},"dateOpened":"2023-01-01","stallCount":9,"counted":true,"elevationMeters":25,"powerKilowatt":250,"solarCanopy":false,"battery":false,"otherEVs":true,"statusDays":0,"urlDiscuss":false,"stalls":{"v3":9},"plugs":{"tpc":9,"nacs":0,"ccs1":9,"multi":9}},{"id":5754,"locationId":"SuwonYeongtongsupercharger","name":"Suwon, South Korea - Yeongtong Fantaseum","status":"OPEN","address":{"street":"2nd and 3rd Floor, 1566 Songjuk-dong, Deokyeong-daero, Suwon-si","city":"Suwon","state":"Gyeonggi","zip":"16693","countryId":137,"country":"South Korea","regionId":102,"region":"Asia Pacific"},"gps":{"latitude":37.245632,"longitude":127.062206},"dateOpened":"2023-01-01","stallCount":8,"counted":true,"elevationMeters":37,"powerKilowatt":250,"solarCanopy":false,"battery":false,"otherEVs":true,"statusDays":0,"urlDiscuss":false,"stalls":{"v3":8},"plugs":{"tpc":8,"nacs":0,"ccs1":8,"multi":8}},{"id":5751,"locationId":"superchargerpajumunsterdam","name":"Paju, South Korea - Munsterdam","status":"OPEN","address":{"street":"113-175 Unjeong-ro, Paju-si 10911 Unjeong 1(il)-dong","city":"Paju","state":"Gyeonggi","zip":"10911","countryId":137,"country":"South Korea","regionId":102,"region":"Asia Pacific"},"gps":{"latitude":37.727181,"longitude":126.7836},"dateOpened":"2022-12-31","stallCount":8,"counted":true,"elevationMeters":13,"powerKilowatt":250,"solarCanopy":false,"battery":false,"otherEVs":true,"statusDays":0,"urlDiscuss":false,"stalls":{"v3":8},"plugs":{"tpc":8,"nacs":0,"ccs1":8,"multi":8}},{"id":5752,"locationId":"MapoSangAmsupercharger","name":"Seoul, South Korea - SangAm","status":"OPEN","address":{"street":"80 Maebongsan-ro, Seoul","city":"Seoul","state":"Seoul","zip":"03927","countryId":137,"country":"South Korea","regionId":102,"region":"Asia Pacific"},"gps":{"latitude":37.578525,"longitude":126.894257},"dateOpened":"2022-12-31","stallCount":6,"counted":true,"elevationMeters":10,"powerKilowatt":250,"solarCanopy":false,"battery":false,"otherEVs":true,"statusDays":0,"urlDiscuss":false,"stalls":{"v3":6},"plugs":{"tpc":6,"nacs":0,"ccs1":6,"multi":6}},{"id":5739,"locationId":"goyangilsanonemount","name":"Goyang, South Korea - OneMount","status":"OPEN","address":{"street":"Ilsan Hallyu World-ro 300","city":"Goyang","state":"Gyeonggi","zip":"10392","countryId":137,"country":"South Korea","regionId":102,"region":"Asia Pacific"},"gps":{"latitude":37.66556,"longitude":126.754793},"dateOpened":"2022-12-29","stallCount":11,"counted":true,"elevationMeters":12,"powerKilowatt":250,"solarCanopy":false,"battery":false,"otherEVs":true,"statusDays":0,"urlDiscuss":false,"stalls":{"v3":11},"plugs":{"tpc":11,"nacs":0,"ccs1":11,"multi":11}},{"id":5738,"locationId":"gunpogeumjeongakplaza","name":"Gunpo, South Korea - AK Plaza","status":"OPEN","address":{"street":"143 LS-ro, Gunpo-si, Gyeonggi-do","city":"Gunpo","state":"Gyeonggi","zip":"15809","countryId":137,"country":"South Korea","regionId":102,"region":"Asia Pacific"},"gps":{"latitude":37.371582,"longitude":126.94568},"dateOpened":"2022-12-29","stallCount":8,"counted":true,"elevationMeters":33,"powerKilowatt":250,"solarCanopy":false,"battery":false,"otherEVs":true,"statusDays":0,"urlDiscuss":false,"stalls":{"v3":8},"plugs":{"tpc":8,"nacs":0,"ccs1":8,"multi":8}},{"id":5726,"locationId":"goseongoceantoyou","name":"Goseong, South Korea - Ocean to You Resort","status":"OPEN","address":{"street":"9, Sampohaebyeon-gil, Goseong-gun","city":"Goseong","state":"Gangwon","zip":"24750","countryId":137,"country":"South Korea","regionId":102,"region":"Asia Pacific"},"gps":{"latitude":38.316114,"longitude":128.531046},"dateOpened":"2022-12-27","stallCount":8,"counted":true,"elevationMeters":11,"powerKilowatt":250,"solarCanopy":false,"battery":false,"otherEVs":true,"statusDays":0,"urlDiscuss":false,"stalls":{"v3":8},"plugs":{"tpc":8,"nacs":0,"ccs1":8,"multi":8}},{"id":5628,"locationId":"mokpopormocubesupercharger","name":"Mokpo, South Korea","status":"OPEN","address":{"street":"Mokpo Ogam-ro 95","city":"Mokpo","state":"Jeollanam","zip":"58662","countryId":137,"country":"South Korea","regionId":102,"region":"Asia Pacific"},"gps":{"latitude":34.807314,"longitude":126.425745},"dateOpened":"2022-12-11","stallCount":8,"counted":true,"elevationMeters":7,"powerKilowatt":250,"solarCanopy":false,"battery":false,"otherEVs":true,"statusDays":0,"urlDiscuss":false,"stalls":{"v3":8},"plugs":{"tpc":8,"nacs":0,"ccs1":8,"multi":8}},{"id":5573,"locationId":"imsilcheesepark","name":"Imsil, South Korea","status":"OPEN","address":{"street":"Imsil Cheese Theme Park 50, Doin 2-gil, Seongsu-myeon, Imsil-gun","city":"Imsil-gun","state":"Jeollabuk","zip":null,"countryId":137,"country":"South Korea","regionId":102,"region":"Asia Pacific"},"gps":{"latitude":35.63068,"longitude":127.303884},"dateOpened":"2022-11-29","stallCount":6,"counted":true,"elevationMeters":230,"powerKilowatt":250,"solarCanopy":false,"battery":false,"otherEVs":true,"statusDays":0,"urlDiscuss":false,"stalls":{"v3":6},"plugs":{"tpc":6,"nacs":0,"ccs1":6,"multi":6}},{"id":5574,"locationId":"31209","name":"Sejong, South Korea - Daepyeong","status":"OPEN","address":{"street":"Sejong Jonghabundongjang-ro 29","city":"Sejong","state":"Sejong","zip":"30154","countryId":137,"country":"South Korea","regionId":102,"region":"Asia Pacific"},"gps":{"latitude":36.468663,"longitude":127.267814},"dateOpened":"2022-11-29","stallCount":6,"counted":true,"elevationMeters":20,"powerKilowatt":250,"solarCanopy":false,"battery":false,"otherEVs":true,"statusDays":0,"urlDiscuss":false,"stalls":{"v3":6},"plugs":{"tpc":6,"nacs":0,"ccs1":6,"multi":6}},{"id":5490,"locationId":"seongsudtowerq322","name":"Seoul, South Korea - Seongsu D Tower","status":"OPEN","address":{"street":"B5, 83-21 Wangsimni-ro, Seongdong-gu. SEOUL, 04769","city":"Seoul","state":"Seoul","zip":"04769","countryId":137,"country":"South Korea","regionId":102,"region":"Asia Pacific"},"gps":{"latitude":37.544332,"longitude":127.04416},"dateOpened":"2022-11-10","stallCount":9,"counted":true,"elevationMeters":11,"powerKilowatt":250,"solarCanopy":false,"battery":false,"otherEVs":true,"statusDays":0,"urlDiscuss":false,"stalls":{"v3":9},"plugs":{"tpc":9,"nacs":0,"ccs1":9,"multi":9}},{"id":5507,"locationId":"34277","name":"Gimcheon, South Korea - Moda Outlet","status":"OPEN","address":{"street":"1417, Apo-daero, Apo-eup, Gimcheon-si, Gyeongsangbuk-do","city":"Gimcheon-si","state":"Gyeongsangbuk","zip":"39676","countryId":137,"country":"South Korea","regionId":102,"region":"Asia Pacific"},"gps":{"latitude":36.15525,"longitude":128.280846},"dateOpened":"2022-11-10","stallCount":8,"counted":true,"elevationMeters":74,"powerKilowatt":250,"solarCanopy":false,"battery":false,"otherEVs":true,"statusDays":0,"urlDiscuss":false,"stalls":{"v3":8},"plugs":{"tpc":8,"nacs":0,"ccs1":8,"multi":8},"facilityName":"Moda Outlet"},{"id":5508,"locationId":"Yangsansupercharger","name":"Yangsan, South Korea - Mulgeum Oslo Park","status":"OPEN","address":{"street":"14, Beomgu-ro, Yangsan-si 50611","city":"Yangsan-si","state":"Gyeongsangnam","zip":"50611","countryId":137,"country":"South Korea","regionId":102,"region":"Asia Pacific"},"gps":{"latitude":35.32755,"longitude":129.011743},"dateOpened":"2022-11-10","stallCount":6,"counted":true,"elevationMeters":3,"powerKilowatt":250,"solarCanopy":false,"battery":false,"otherEVs":true,"statusDays":0,"urlDiscuss":true,"stalls":{"v3":6},"plugs":{"tpc":6,"nacs":0,"ccs1":6,"multi":6}},{"id":5051,"locationId":"teslabucheonlottedepartmentsupercharger","name":"Bucheon, South Korea","status":"OPEN","address":{"street":"Lotte Department Store Jungdong Branch 300, Gilju-ro, Bucheon-si, Gyeonggi-do","city":"Bucheon","state":"Gyeonggi","zip":null,"countryId":137,"country":"South Korea","regionId":102,"region":"Asia Pacific"},"gps":{"latitude":37.5026,"longitude":126.775},"dateOpened":"2022-09-30","stallCount":9,"counted":true,"elevationMeters":12,"powerKilowatt":250,"solarCanopy":false,"battery":false,"otherEVs":true,"statusDays":0,"urlDiscuss":true,"stalls":{"v3":9},"plugs":{"tpc":9,"nacs":0,"ccs1":9,"multi":9}},{"id":5047,"locationId":"geumcheonsupercharger","name":"Seoul, South Korea - Geumcheon Mario Outlet","status":"OPEN","address":{"street":"Mario Outlet Hall 1 185, Digital-ro, Geumcheon-gu","city":"Seoul","state":"Seoul","zip":null,"countryId":137,"country":"South Korea","regionId":102,"region":"Asia Pacific"},"gps":{"latitude":37.478,"longitude":126.8872},"dateOpened":"2022-09-30","stallCount":9,"counted":true,"elevationMeters":8,"powerKilowatt":250,"solarCanopy":false,"battery":false,"otherEVs":true,"statusDays":0,"urlDiscuss":true,"stalls":{"v3":9},"plugs":{"tpc":9,"nacs":0,"ccs1":9,"multi":9}},{"id":5053,"locationId":"35418","name":"Sokcho, South Korea - Hanwha Resort Seorak","status":"OPEN","address":{"street":"88, Misiryeong-ro 2983beon-gil, Sokcho-si, Gangwon-do","city":"Sokcho","state":"Gangwon","zip":null,"countryId":137,"country":"South Korea","regionId":102,"region":"Asia Pacific"},"gps":{"latitude":38.2081,"longitude":128.5265},"dateOpened":"2022-09-30","stallCount":6,"counted":true,"elevationMeters":77,"powerKilowatt":250,"solarCanopy":false,"battery":false,"otherEVs":true,"statusDays":0,"urlDiscuss":true,"stalls":{"v3":6},"plugs":{"tpc":6,"nacs":0,"ccs1":6,"multi":6}},{"id":5052,"locationId":"teslabusanhaewondaelottedepartmentcentumcitysupercharger","name":"Busan, South Korea - Centum City","status":"OPEN","address":{"street":"Lotte Department Store Centum City 59, Centum Nam-daero, Haeundae-gu","city":"Busan","state":"Busan","zip":null,"countryId":137,"country":"South Korea","regionId":102,"region":"Asia Pacific"},"gps":{"latitude":35.1696,"longitude":129.1312},"dateOpened":"2022-09-30","stallCount":6,"counted":true,"elevationMeters":1,"powerKilowatt":250,"solarCanopy":false,"battery":false,"otherEVs":true,"statusDays":0,"urlDiscuss":true,"stalls":{"v3":6},"plugs":{"tpc":6,"nacs":0,"ccs1":6,"multi":6}},{"id":5054,"locationId":"chungjumodaoutletsupercharger","name":"Chungju, South Korea - Moda Outlet","status":"OPEN","address":{"street":"3683, Jungwon-daero, Chungju-si, Chungcheongbuk-do","city":"Chungju","state":"Chungcheongbuk","zip":null,"countryId":137,"country":"South Korea","regionId":102,"region":"Asia Pacific"},"gps":{"latitude":36.961,"longitude":127.8998},"dateOpened":"2022-09-30","stallCount":8,"counted":true,"elevationMeters":74,"powerKilowatt":250,"solarCanopy":false,"battery":false,"otherEVs":true,"statusDays":0,"urlDiscuss":true,"stalls":{"v3":8},"plugs":{"tpc":8,"nacs":0,"ccs1":8,"multi":8}},{"id":5050,"locationId":"teslagoyangdonaedongsupercharger","name":"Goyang, South Korea - Donaedong","status":"OPEN","address":{"street":"449, Gwonyul-daero, Deogyang-gu, Goyang-si, Gyeonggi-do","city":"Goyang","state":"Gyeonggi","zip":null,"countryId":137,"country":"South Korea","regionId":102,"region":"Asia Pacific"},"gps":{"latitude":37.6327,"longitude":126.8647},"dateOpened":"2022-09-30","stallCount":8,"counted":true,"elevationMeters":32,"powerKilowatt":250,"solarCanopy":false,"battery":false,"otherEVs":true,"statusDays":0,"urlDiscuss":true,"stalls":{"v3":8},"plugs":{"tpc":8,"nacs":0,"ccs1":8,"multi":8}},{"id":5049,"locationId":"teslabusanhotelnongshimsupercharger","name":"Busan, South Korea - Nongshim Hotel","status":"OPEN","address":{"street":"Hotel Nongshim 23, Geumganggongwon-ro 20beon-gil, Dongnae-gu","city":"Busan","state":"Busan","zip":null,"countryId":137,"country":"South Korea","regionId":102,"region":"Asia Pacific"},"gps":{"latitude":35.2197,"longitude":129.083},"dateOpened":"2022-09-30","stallCount":6,"counted":true,"elevationMeters":14,"powerKilowatt":250,"solarCanopy":false,"battery":false,"otherEVs":true,"statusDays":0,"urlDiscuss":true,"stalls":{"v3":6},"plugs":{"tpc":6,"nacs":0,"ccs1":6,"multi":6},"parkingId":5,"facilityName":"Nongshim Hotel"},{"id":5048,"locationId":"gurisupercharger","name":"Guri, South Korea - Moda Outlet","status":"OPEN","address":{"street":"Moda Outlet Guri Namyangju, 230, Gyeongchunbuk-ro, Guri-si, Gyeonggi-do","city":"Guri","state":"Gyeonggi","zip":null,"countryId":137,"country":"South Korea","regionId":102,"region":"Asia Pacific"},"gps":{"latitude":37.6333,"longitude":127.1159},"dateOpened":"2022-09-30","stallCount":8,"counted":true,"elevationMeters":39,"powerKilowatt":250,"solarCanopy":false,"battery":false,"otherEVs":true,"statusDays":0,"urlDiscuss":true,"stalls":{"v3":8},"plugs":{"tpc":8,"nacs":0,"ccs1":8,"multi":8},"addressNotes":"Level Rooftop"},{"id":5055,"locationId":"hadongupercharger","name":"Hadong, South Korea","status":"OPEN","address":{"street":"13-1, Gangbyeon-gil, Jingyo-myeon, Hadong-gun, Gyeongsangnam-do","city":"Hadong","state":"Gyeongsangnam","zip":null,"countryId":137,"country":"South Korea","regionId":102,"region":"Asia Pacific"},"gps":{"latitude":35.03,"longitude":127.9039},"dateOpened":"2022-09-30","stallCount":6,"counted":true,"elevationMeters":1,"powerKilowatt":250,"solarCanopy":false,"battery":false,"otherEVs":true,"statusDays":0,"urlDiscuss":true,"stalls":{"v3":6},"plugs":{"tpc":6,"nacs":0,"ccs1":6,"multi":6}},{"id":5019,"locationId":"injesupercharger","name":"Inje, South Korea","status":"OPEN","address":{"street":"130, Sanghadap-ro, Kirin-myeon","city":"Inje","state":"Gangwon","zip":null,"countryId":137,"country":"South Korea","regionId":102,"region":"Asia Pacific"},"gps":{"latitude":38.0053,"longitude":128.289},"dateOpened":"2022-09-28","stallCount":8,"counted":true,"elevationMeters":293,"powerKilowatt":250,"solarCanopy":false,"battery":false,"otherEVs":true,"statusDays":0,"urlDiscuss":true,"stalls":{"v3":8},"plugs":{"tpc":8,"nacs":0,"ccs1":8,"multi":8}},{"id":4564,"locationId":"busangijangsupercharger","name":"Busan, South Korea - Gijang","status":"OPEN","address":{"street":"Lotte Premium Outlet Dongbusan Branch 147","city":"Gijanghaean-ro, Gijang-eup, Gijang-gun, Busan","state":"Busan","zip":null,"countryId":137,"country":"South Korea","regionId":102,"region":"Asia Pacific"},"gps":{"latitude":35.19304,"longitude":129.21153},"dateOpened":"2022-09-02","stallCount":12,"counted":true,"elevationMeters":31,"powerKilowatt":250,"solarCanopy":false,"battery":false,"otherEVs":true,"statusDays":0,"urlDiscuss":true,"stalls":{"v3":12},"plugs":{"tpc":12,"nacs":0,"ccs1":12,"multi":12}},{"id":4395,"locationId":"anseongsupercharger","name":"Anseong, South Korea","status":"OPEN","address":{"street":"Anseong Livestock Agricultural Cooperative Federation 833, Anseong Maum-daero","city":"Anseong","state":"Gyeonggi","zip":null,"countryId":137,"country":"South Korea","regionId":102,"region":"Asia Pacific"},"gps":{"latitude":36.988973,"longitude":127.265732},"dateOpened":"2022-07-02","stallCount":6,"counted":true,"elevationMeters":41,"powerKilowatt":250,"solarCanopy":false,"battery":false,"otherEVs":true,"statusDays":0,"urlDiscuss":true,"stalls":{"v3":6},"plugs":{"tpc":6,"nacs":0,"ccs1":6,"multi":6}},{"id":4397,"locationId":"seoulsongpaolympicparksupercharger","name":"Seoul, South Korea - Jamsil Lotte World","status":"OPEN","address":{"street":"Lotte Department Store Jamsil Branch, 240 Olympic-ro, Songpa-gu","city":"Seoul","state":"Seoul","zip":null,"countryId":137,"country":"South Korea","regionId":102,"region":"Asia Pacific"},"gps":{"latitude":37.511499,"longitude":127.098247},"dateOpened":"2022-07-02","stallCount":6,"counted":true,"elevationMeters":14,"powerKilowatt":250,"solarCanopy":false,"battery":false,"otherEVs":true,"statusDays":0,"urlDiscuss":true,"stalls":{"v3":6},"plugs":{"tpc":6,"nacs":0,"ccs1":6,"multi":6}},{"id":4394,"locationId":"gyeongjusupercharger","name":"Gyeongju, South Korea","status":"OPEN","address":{"street":"Lahan Select Gyeongju 338, Bomun-ro","city":"Gyeongju","state":"Gyeongsangbuk","zip":null,"countryId":137,"country":"South Korea","regionId":102,"region":"Asia Pacific"},"gps":{"latitude":35.850434,"longitude":129.277112},"dateOpened":"2022-07-02","stallCount":6,"counted":true,"elevationMeters":107,"powerKilowatt":250,"solarCanopy":false,"battery":false,"otherEVs":true,"statusDays":0,"urlDiscuss":true,"stalls":{"v3":6},"plugs":{"tpc":6,"nacs":0,"ccs1":6,"multi":6}},{"id":4396,"locationId":"chuncheonsupercharger","name":"Chuncheon, South Korea - ENTA 2022","status":"OPEN","address":{"street":"ENTA2022, 120 Husok-ro","city":"Chuncheon","state":"Gangwon","zip":null,"countryId":137,"country":"South Korea","regionId":102,"region":"Asia Pacific"},"gps":{"latitude":37.863274,"longitude":127.748106},"dateOpened":"2022-07-02","stallCount":6,"counted":true,"elevationMeters":98,"powerKilowatt":250,"solarCanopy":false,"battery":false,"otherEVs":true,"statusDays":0,"urlDiscuss":true,"stalls":{"v3":6},"plugs":{"tpc":6,"nacs":0,"ccs1":6,"multi":6}},{"id":4348,"locationId":"gyeonggigwangjusupercharger","name":"Gyeonggi, South Korea - Gwangju","status":"OPEN","address":{"street":"Nine Block Jungdae-dong 1967 Gyeongchung-daero,","city":"Gwangju-si","state":"Gyeonggi","zip":null,"countryId":137,"country":"South Korea","regionId":102,"region":"Asia Pacific"},"gps":{"latitude":37.403372,"longitude":127.22335},"dateOpened":"2022-06-14","stallCount":6,"counted":true,"elevationMeters":87,"powerKilowatt":250,"solarCanopy":false,"battery":false,"otherEVs":false,"statusDays":0,"urlDiscuss":true,"stalls":{"v3":6},"plugs":{"tpc":6,"nacs":0}},{"id":4346,"locationId":"suyusupercharger","name":"Seoul, South Korea - Suyu","status":"OPEN","address":{"street":"Episode Suyu 838, 315, Dobong-ro","city":"Seoul","state":"Seoul","zip":null,"countryId":137,"country":"South Korea","regionId":102,"region":"Asia Pacific"},"gps":{"latitude":37.637192,"longitude":127.023378},"dateOpened":"2022-06-14","stallCount":6,"counted":true,"elevationMeters":32,"powerKilowatt":250,"solarCanopy":false,"battery":false,"otherEVs":true,"statusDays":0,"urlDiscuss":true,"stalls":{"v3":6},"plugs":{"tpc":6,"nacs":0,"ccs1":6,"multi":6}},{"id":4347,"locationId":"31975","name":"Seoul, South Korea - CCMM Building","status":"OPEN","address":{"street":"101, Yeouigongwon-ro, Yeongdeungpo-gu","city":"Seoul","state":"Seoul","zip":null,"countryId":137,"country":"South Korea","regionId":102,"region":"Asia Pacific"},"gps":{"latitude":37.529396,"longitude":126.924755},"dateOpened":"2022-06-14","stallCount":6,"counted":true,"elevationMeters":11,"powerKilowatt":250,"solarCanopy":false,"battery":false,"otherEVs":true,"statusDays":0,"urlDiscuss":true,"stalls":{"v3":6},"plugs":{"tpc":6,"nacs":0,"ccs1":6,"multi":6}},{"id":4335,"locationId":"seoultimesstreamsupercharger","name":"Seoul, South Korea - Times Stream","status":"OPEN","address":{"street":"Times Stream Mall, 330 Sillim-ro","city":"Seoul","state":"Seoul","zip":null,"countryId":137,"country":"South Korea","regionId":102,"region":"Asia Pacific"},"gps":{"latitude":37.4838519,"longitude":126.930193},"dateOpened":"2022-06-13","stallCount":6,"counted":true,"elevationMeters":22,"powerKilowatt":250,"solarCanopy":false,"battery":false,"otherEVs":true,"statusDays":0,"urlDiscuss":true,"stalls":{"v3":6},"plugs":{"tpc":6,"nacs":0,"ccs1":6,"multi":6}},{"id":4334,"locationId":"gwangjucheomdansupercharger","name":"Gwangju, South Korea - Cheomdan","status":"OPEN","address":{"street":"694-28 Ssangam-dong","city":"Gwangsan-gu","state":"Gwangju","zip":null,"countryId":137,"country":"South Korea","regionId":102,"region":"Asia Pacific"},"gps":{"latitude":35.216576,"longitude":126.849241},"dateOpened":"2022-06-13","stallCount":6,"counted":true,"elevationMeters":24,"powerKilowatt":250,"solarCanopy":false,"battery":false,"otherEVs":true,"statusDays":0,"urlDiscuss":true,"stalls":{"v3":6},"plugs":{"tpc":6,"nacs":0,"ccs1":6,"multi":6},"parkingId":5,"addressNotes":"Level Rooftop"},{"id":4291,"locationId":"gwangyangsupercharger","name":"Gwangyang, South Korea - LF Square","status":"OPEN","address":{"street":"LF Square Gwangyang Terrace Mall, 466, Sungwang","city":"Gwangyang","state":"Jeollanam","zip":null,"countryId":137,"country":"South Korea","regionId":102,"region":"Asia Pacific"},"gps":{"latitude":34.961728,"longitude":127.565446},"dateOpened":"2022-05-27","stallCount":6,"counted":true,"elevationMeters":13,"powerKilowatt":250,"solarCanopy":false,"battery":false,"otherEVs":false,"statusDays":0,"urlDiscuss":true,"stalls":{"v3":6},"plugs":{"tpc":6,"nacs":0}},{"id":4305,"locationId":"gangnamsinsasupercharger","name":"Seoul, South Korea - Sinsa","status":"OPEN","address":{"street":"Sinsa Square 652, Gangnam-daero","city":"Gangnam","state":"Seoul","zip":null,"countryId":137,"country":"South Korea","regionId":102,"region":"Asia Pacific"},"gps":{"latitude":37.519982,"longitude":127.018977},"dateOpened":"2022-05-16","stallCount":6,"counted":true,"elevationMeters":20,"powerKilowatt":250,"solarCanopy":false,"battery":false,"otherEVs":true,"statusDays":0,"urlDiscuss":true,"stalls":{"v3":6},"plugs":{"tpc":6,"nacs":0,"ccs1":6,"multi":6}},{"id":4146,"locationId":"changwonsupercharger","name":"Changwon, South Korea","status":"OPEN","address":{"street":"Emporium Building 13, Jungang-daero 100beon-gil, Seongsan-gu","city":"Changwon-si","state":"Gyeongsangnam","zip":null,"countryId":137,"country":"South Korea","regionId":102,"region":"Asia Pacific"},"gps":{"latitude":35.22269,"longitude":128.68126},"dateOpened":"2022-04-01","stallCount":6,"counted":true,"elevationMeters":19,"powerKilowatt":250,"solarCanopy":false,"battery":false,"otherEVs":false,"statusDays":0,"urlDiscuss":true,"stalls":{"v3":6},"plugs":{"tpc":6,"nacs":0}},{"id":4145,"locationId":"pohangsupercharger","name":"Pohang, South Korea","status":"OPEN","address":{"street":"507 Daeryeon-ri, Heunghae-eup, Buk-gu","city":"Pohang-si","state":"Gyeongsangbuk","zip":null,"countryId":137,"country":"South Korea","regionId":102,"region":"Asia Pacific"},"gps":{"latitude":36.059093,"longitude":129.320555},"dateOpened":"2022-04-01","stallCount":12,"counted":true,"elevationMeters":104,"powerKilowatt":250,"solarCanopy":false,"battery":false,"otherEVs":false,"statusDays":0,"urlDiscuss":true,"stalls":{"v3":12},"plugs":{"tpc":12,"nacs":0}},{"id":4144,"locationId":"jeonjusupercharger","name":"Jeonju, South Korea","status":"OPEN","address":{"street":"45 Yongmeori-ro, Wansan-gu","city":"Jeonju-si","state":"Jeollabuk","zip":null,"countryId":137,"country":"South Korea","regionId":102,"region":"Asia Pacific"},"gps":{"latitude":35.80698,"longitude":127.11566},"dateOpened":"2022-04-01","stallCount":8,"counted":true,"elevationMeters":30,"powerKilowatt":250,"solarCanopy":false,"battery":false,"otherEVs":true,"statusDays":0,"urlDiscuss":true,"stalls":{"v3":8},"plugs":{"tpc":8,"nacs":0,"ccs1":8,"multi":8}},{"id":4143,"locationId":"daegususeongsupercharger","name":"Daegu, South Korea - Suseong","status":"OPEN","address":{"street":"Daegu Suseong Art Square, 18, Suseongmot 6-gil","city":"Suseong-gu","state":"Daegu","zip":null,"countryId":137,"country":"South Korea","regionId":102,"region":"Asia Pacific"},"gps":{"latitude":35.82726,"longitude":128.62369},"dateOpened":"2022-04-01","stallCount":8,"counted":true,"elevationMeters":76,"powerKilowatt":250,"solarCanopy":false,"battery":false,"otherEVs":false,"statusDays":0,"urlDiscuss":true,"stalls":{"v3":8},"plugs":{"tpc":8,"nacs":0},"parkingId":5},{"id":4142,"locationId":"cheongjusupercharger","name":"Cheongju, South Korea","status":"OPEN","address":{"street":"345-1 Yullyang.sacheon-dong, Sangdang-gu","city":"Cheongju","state":"Chungcheongbuk","zip":null,"countryId":137,"country":"South Korea","regionId":102,"region":"Asia Pacific"},"gps":{"latitude":36.66529,"longitude":127.4993},"dateOpened":"2022-03-30","stallCount":8,"counted":true,"elevationMeters":61,"powerKilowatt":250,"solarCanopy":false,"battery":false,"otherEVs":true,"statusDays":0,"urlDiscuss":true,"stalls":{"v3":8},"plugs":{"tpc":8,"nacs":0,"ccs1":8,"multi":8}},{"id":4114,"locationId":"gwanggyolakesupercharger","name":"Gwanggyo Joongang, South Korea","status":"OPEN","address":{"street":"Lotte Outlet Gwanggyo Branch, 10, Docheong-ro, Yeongtong-gu, Suwon-si","city":"Suwon","state":"Gyeonggi","zip":null,"countryId":137,"country":"South Korea","regionId":102,"region":"Asia Pacific"},"gps":{"latitude":37.28668,"longitude":127.055814},"dateOpened":"2022-03-20","stallCount":6,"counted":true,"elevationMeters":60,"powerKilowatt":250,"solarCanopy":false,"battery":false,"otherEVs":true,"statusDays":0,"urlDiscuss":true,"stalls":{"v3":6},"plugs":{"tpc":6,"nacs":0,"ccs1":6,"multi":6}},{"id":4115,"locationId":"seongnamalphadome2supercharger","name":"Seongnam, South Korea - Pangyo Tech1","status":"OPEN","address":{"street":"Pangyo Tech One Tower, 534, Baekhyeon-dong, Bundang-gu","city":"Seongnam","state":"Gyeonggi","zip":null,"countryId":137,"country":"South Korea","regionId":102,"region":"Asia Pacific"},"gps":{"latitude":37.395597,"longitude":127.112063},"dateOpened":"2022-03-20","stallCount":3,"counted":true,"elevationMeters":41,"powerKilowatt":250,"solarCanopy":false,"battery":false,"otherEVs":true,"statusDays":0,"urlDiscuss":true,"stalls":{"v3":3},"plugs":{"tpc":3,"nacs":0,"ccs1":3,"multi":3}},{"id":4105,"locationId":"sejongsupercharger","name":"Sejong, South Korea - AK Plaza","status":"OPEN","address":{"street":"KT&G Sejong Tower C (AK PLAZA Sejong Fashion Hall) 20, Dasom 1-ro","city":"Sejong","state":"Sejong","zip":null,"countryId":137,"country":"South Korea","regionId":102,"region":"Asia Pacific"},"gps":{"latitude":36.500458,"longitude":127.256765},"dateOpened":"2022-03-15","stallCount":9,"counted":true,"elevationMeters":25,"powerKilowatt":250,"solarCanopy":false,"battery":false,"otherEVs":true,"statusDays":0,"urlDiscuss":true,"stalls":{"v3":9},"plugs":{"tpc":9,"nacs":0,"ccs1":9,"multi":9}},{"id":4104,"locationId":"buyeosupercharger","name":"Buyeo, South Korea - Lotte Premium Outlet","status":"OPEN","address":{"street":"Lotte Outlet Buyeo 387, Baekjemun-ro, Gyuam-myeon","city":"Buyeo","state":"Chungcheongnam","zip":null,"countryId":137,"country":"South Korea","regionId":102,"region":"Asia Pacific"},"gps":{"latitude":36.306315,"longitude":126.900404},"dateOpened":"2022-03-15","stallCount":8,"counted":true,"elevationMeters":21,"powerKilowatt":250,"solarCanopy":false,"battery":false,"otherEVs":true,"statusDays":0,"urlDiscuss":true,"stalls":{"v3":8},"plugs":{"tpc":8,"nacs":0,"ccs1":8,"multi":8}},{"id":3946,"locationId":"cheongdosupercharger","name":"Cheongdo, South Korea","status":"OPEN","address":{"street":"1376, Saemaeul-ro, Cheongdo-eup","city":"Cheongdo-gun","state":"Gyeongsangbuk","zip":null,"countryId":137,"country":"South Korea","regionId":102,"region":"Asia Pacific"},"gps":{"latitude":35.654083,"longitude":128.749412},"dateOpened":"2021-12-31","stallCount":6,"counted":true,"elevationMeters":72,"powerKilowatt":250,"solarCanopy":false,"battery":false,"otherEVs":false,"statusDays":0,"urlDiscuss":true,"stalls":{"v3":6},"plugs":{"tpc":6,"nacs":0}},{"id":3947,"locationId":"jecheonsupercharger","name":"Jecheon, South Korea","status":"OPEN","address":{"street":"Namjecheon IC Service Area 741, Cheongpungho-ro, Geumseong-myeon","city":"Jecheon-si","state":"Chungcheongbuk","zip":null,"countryId":137,"country":"South Korea","regionId":102,"region":"Asia Pacific"},"gps":{"latitude":37.072695,"longitude":128.191443},"dateOpened":"2021-12-31","stallCount":8,"counted":true,"elevationMeters":173,"powerKilowatt":250,"solarCanopy":false,"battery":false,"otherEVs":false,"statusDays":0,"urlDiscuss":true,"stalls":{"v3":8},"plugs":{"tpc":8,"nacs":0}},{"id":3948,"locationId":"yangyangsupercharger","name":"Yangyang, South Korea - Seolhaewon","status":"OPEN","address":{"street":"Seolhaewon Resort, 230, Gonghang-ro, Sonyang-myeon","city":"Yangyang-gun","state":"Gangwon","zip":null,"countryId":137,"country":"South Korea","regionId":102,"region":"Asia Pacific"},"gps":{"latitude":38.054626,"longitude":128.660877},"dateOpened":"2021-12-31","stallCount":8,"counted":true,"elevationMeters":89,"powerKilowatt":250,"solarCanopy":false,"battery":false,"otherEVs":true,"statusDays":0,"urlDiscuss":true,"stalls":{"v3":8},"plugs":{"tpc":8,"nacs":0,"ccs1":8,"multi":8}},{"id":3949,"locationId":"cheongnasupercharger","name":"Incheon, South Korea - Chungra Square 7","status":"OPEN","address":{"street":"Cheongna Square Seven 76, Cheongrarubi-ro, Seo-gu, Incheon","city":"Incheon","state":"Incheon","zip":null,"countryId":137,"country":"South Korea","regionId":102,"region":"Asia Pacific"},"gps":{"latitude":37.532636,"longitude":126.641587},"dateOpened":"2021-12-31","stallCount":8,"counted":true,"elevationMeters":1,"powerKilowatt":250,"solarCanopy":false,"battery":false,"otherEVs":true,"statusDays":0,"urlDiscuss":true,"stalls":{"v3":8},"plugs":{"tpc":8,"nacs":0,"ccs1":8,"multi":8},"addressNotes":"Level B2"},{"id":3928,"locationId":"gimposupercharger","name":"Gimpo, South Korea - Gurae","status":"OPEN","address":{"street":"Karim Avenue Gimpo 487, Gimpo Hangang 4-ro","city":"Gimpo","state":"Gyeonggi","zip":null,"countryId":137,"country":"South Korea","regionId":102,"region":"Asia Pacific"},"gps":{"latitude":37.645455,"longitude":126.63037},"dateOpened":"2021-12-24","stallCount":6,"counted":true,"elevationMeters":15,"powerKilowatt":250,"solarCanopy":false,"battery":false,"otherEVs":false,"statusDays":0,"urlDiscuss":true,"stalls":{"v3":6},"plugs":{"tpc":6,"nacs":0}},{"id":3903,"locationId":"pyeongtaeksupercharger","name":"Pyeongtaek, South Korea - Songtan","status":"OPEN","address":{"street":"1409, Cheongwon-ro","city":"Pyeongtaek-si","state":"Gyeonggi","zip":null,"countryId":137,"country":"South Korea","regionId":102,"region":"Asia Pacific"},"gps":{"latitude":37.053481,"longitude":127.08031},"dateOpened":"2021-12-15","stallCount":8,"counted":true,"elevationMeters":29,"powerKilowatt":250,"solarCanopy":false,"battery":false,"otherEVs":false,"statusDays":0,"urlDiscuss":true,"stalls":{"v3":8},"plugs":{"tpc":8,"nacs":0}},{"id":3885,"locationId":"yeosusupercharger","name":"Yeosu, South Korea - Hiddenbay Hotel","status":"OPEN","address":{"street":"496-25, Sinwol-ro","city":"Yeosu-si","state":"Jeollanam","zip":null,"countryId":137,"country":"South Korea","regionId":102,"region":"Asia Pacific"},"gps":{"latitude":34.72179,"longitude":127.69945},"dateOpened":"2021-12-10","stallCount":8,"counted":true,"elevationMeters":10,"powerKilowatt":250,"solarCanopy":false,"battery":false,"otherEVs":true,"statusDays":0,"urlDiscuss":true,"stalls":{"v3":8},"plugs":{"tpc":8,"nacs":0,"ccs1":8,"multi":8}},{"id":3886,"locationId":"Daejeon","name":"Daejeon Seogu, South Korea","status":"OPEN","address":{"street":"598, Gyeryong-ro, Seo-gu","city":"Daejeon","state":"Daejeon","zip":"35299","countryId":137,"country":"South Korea","regionId":102,"region":"Asia Pacific"},"gps":{"latitude":36.34078,"longitude":127.389478},"dateOpened":"2021-12-10","stallCount":6,"counted":true,"elevationMeters":63,"powerKilowatt":250,"solarCanopy":false,"battery":false,"otherEVs":true,"statusDays":0,"urlDiscuss":true,"stalls":{"v3":6},"plugs":{"tpc":6,"ccs1":6,"multi":6},"addressNotes":"Floor B4, Zone C2"},{"id":3864,"locationId":"pyeongchangsupercharger","name":"Pyeongchang, South Korea - Phoenix","status":"OPEN","address":{"street":"174, Taegi-ro, Bongpyeong-myeon","city":"Pyeongchang-gun","state":"Gangwon","zip":null,"countryId":137,"country":"South Korea","regionId":102,"region":"Asia Pacific"},"gps":{"latitude":37.586685,"longitude":128.322039},"dateOpened":"2021-11-27","stallCount":9,"counted":true,"elevationMeters":663,"powerKilowatt":250,"solarCanopy":false,"battery":false,"otherEVs":true,"statusDays":0,"urlDiscuss":true,"stalls":{"v3":9},"plugs":{"tpc":9,"nacs":0,"ccs1":9,"multi":9}},{"id":3813,"locationId":"Misasupercharger","name":"Seoul, South Korea - Cheongnyangni","status":"OPEN","address":{"street":"214, Wangsan-ro, Dongdaemun-gu","city":"Seoul","state":"Seoul","zip":null,"countryId":137,"country":"South Korea","regionId":102,"region":"Asia Pacific"},"gps":{"latitude":37.579635,"longitude":127.046048},"dateOpened":"2021-11-07","stallCount":3,"counted":true,"elevationMeters":16,"powerKilowatt":250,"solarCanopy":false,"battery":false,"otherEVs":true,"statusDays":0,"urlDiscuss":false,"stalls":{"v3":3},"plugs":{"tpc":3,"nacs":0,"ccs1":3,"multi":3}},{"id":3793,"locationId":"gyeonggianyangsupercharger","name":"Anyang, South Korea - Pyeongchon","status":"OPEN","address":{"street":"33, Gwanpyeong-ro 170beon-gil, Dongan-gu","city":"Anyang-si","state":"Gyeonggi","zip":null,"countryId":137,"country":"South Korea","regionId":102,"region":"Asia Pacific"},"gps":{"latitude":37.39301,"longitude":126.96228},"dateOpened":"2021-10-31","stallCount":6,"counted":true,"elevationMeters":34,"powerKilowatt":250,"solarCanopy":false,"battery":false,"otherEVs":false,"statusDays":0,"urlDiscuss":true,"stalls":{"v3":6},"plugs":{"tpc":6,"nacs":0}},{"id":3778,"locationId":"gwanggyosupercharger","name":"Gwanggyo, South Korea","status":"OPEN","address":{"street":"269 ​​Beopjo-ro 149beon-gil, Suwon-si","city":"Suwon","state":"Gyeonggi","zip":"16512","countryId":137,"country":"South Korea","regionId":102,"region":"Asia Pacific"},"gps":{"latitude":37.293423,"longitude":127.070231},"dateOpened":"2021-10-21","stallCount":3,"counted":true,"elevationMeters":65,"powerKilowatt":250,"solarCanopy":false,"battery":false,"otherEVs":false,"statusDays":0,"urlDiscuss":true,"stalls":{"v3":3},"plugs":{"tpc":3,"nacs":0}},{"id":3745,"locationId":"JejuStore","name":"Jeju, South Korea - Jeju Store","status":"OPEN","address":{"street":"136, Yeonsam-ro","city":"Jeju","state":"Jeju","zip":null,"countryId":137,"country":"South Korea","regionId":102,"region":"Asia Pacific"},"gps":{"latitude":33.492611,"longitude":126.5071},"dateOpened":"2021-10-06","stallCount":8,"counted":true,"elevationMeters":76,"powerKilowatt":250,"solarCanopy":false,"battery":false,"otherEVs":false,"statusDays":0,"urlDiscuss":true,"stalls":{"v3":8},"plugs":{"tpc":8,"nacs":0}},{"id":3725,"locationId":"gwangmyeongsupercharger","name":"Gwangmyeong, South Korea - AK Plaza","status":"OPEN","address":{"street":"U Planet 7, Yangji-ro","city":"Gwangmyeong","state":"Gyeonggi","zip":null,"countryId":137,"country":"South Korea","regionId":102,"region":"Asia Pacific"},"gps":{"latitude":37.41917204,"longitude":126.88211751},"dateOpened":"2021-10-01","stallCount":3,"counted":true,"elevationMeters":23,"powerKilowatt":250,"solarCanopy":false,"battery":false,"otherEVs":true,"statusDays":0,"urlDiscuss":true,"stalls":{"v3":3},"plugs":{"tpc":3,"nacs":0,"ccs1":3,"multi":3}},{"id":3729,"locationId":"dongchunsupercharger","name":"Incheon, South Korea - Dongchun","status":"OPEN","address":{"street":"825-25, Aam-daero, Yeonsu-gu","city":"Incheon","state":"Incheon","zip":null,"countryId":137,"country":"South Korea","regionId":102,"region":"Asia Pacific"},"gps":{"latitude":37.3959939,"longitude":126.663656},"dateOpened":"2021-10-01","stallCount":8,"counted":true,"elevationMeters":17,"powerKilowatt":250,"solarCanopy":false,"battery":false,"otherEVs":false,"statusDays":0,"urlDiscuss":true,"stalls":{"v3":8},"plugs":{"tpc":8,"nacs":0}},{"id":3703,"locationId":"incheonmichuholsupercharger","name":"Incheon, South Korea - Michuhol Alleyway","status":"OPEN","address":{"street":"Ellyway Incheon, 12, Sukgol-ro 88beon-gil, Michuhol-gu","city":"Incheon","state":"Incheon","zip":null,"countryId":137,"country":"South Korea","regionId":102,"region":"Asia Pacific"},"gps":{"latitude":37.470798,"longitude":126.665855},"dateOpened":"2021-09-27","stallCount":6,"counted":true,"elevationMeters":13,"powerKilowatt":250,"solarCanopy":false,"battery":false,"otherEVs":false,"statusDays":0,"urlDiscuss":true,"stalls":{"v3":6},"plugs":{"tpc":6,"nacs":0}},{"id":3699,"locationId":"songpasupercharger","name":"Seoul, South Korea - Songpa Sofitel","status":"OPEN","address":{"street":"209, Jamsil-ro, Songpa-gu","city":"Seoul","state":"Seoul","zip":null,"countryId":137,"country":"South Korea","regionId":102,"region":"Asia Pacific"},"gps":{"latitude":37.513534,"longitude":127.106174},"dateOpened":"2021-09-25","stallCount":6,"counted":true,"elevationMeters":15,"powerKilowatt":250,"solarCanopy":false,"battery":false,"otherEVs":true,"statusDays":0,"urlDiscuss":true,"stalls":{"v3":6},"plugs":{"tpc":6,"nacs":0,"ccs1":6,"multi":6}},{"id":3630,"locationId":"gangbuksupercharger","name":"Seoul, South Korea - Gangbuk Paraspara","status":"OPEN","address":{"street":"689, Samyang-ro, Gangbuk-gu","city":"Seoul","state":"Seoul","zip":null,"countryId":137,"country":"South Korea","regionId":102,"region":"Asia Pacific"},"gps":{"latitude":37.66375,"longitude":127.00871},"dateOpened":"2021-09-11","stallCount":6,"counted":true,"elevationMeters":69,"powerKilowatt":250,"solarCanopy":false,"battery":false,"otherEVs":false,"statusDays":0,"urlDiscuss":true,"stalls":{"v3":6},"plugs":{"tpc":6,"nacs":0}},{"id":3627,"locationId":"euiwangsupercharger","name":"Euiwang, South Korea - Lotte Time Villas","status":"OPEN","address":{"street":"1039, Hakui-dong","city":"Uiwang","state":"Gyeonggi","zip":null,"countryId":137,"country":"South Korea","regionId":102,"region":"Asia Pacific"},"gps":{"latitude":37.375635,"longitude":127.00947},"dateOpened":"2021-09-10","stallCount":3,"counted":true,"elevationMeters":86,"powerKilowatt":250,"solarCanopy":false,"battery":false,"otherEVs":true,"statusDays":0,"urlDiscuss":false,"stalls":{"v3":3},"plugs":{"tpc":3,"nacs":0,"ccs1":3,"multi":3}},{"id":3594,"locationId":"dongtansupercharger","name":"Hwaseong, South Korea - Dongtan Lotte Department Store","status":"OPEN","address":{"street":"160, Dongtanyeok-ro, Hwaseong-si, Gyeonggi-do","city":"Hwaseong","state":"Gyeonggi","zip":null,"countryId":137,"country":"South Korea","regionId":102,"region":"Asia Pacific"},"gps":{"latitude":37.200809,"longitude":127.097418},"dateOpened":"2021-08-19","stallCount":3,"counted":true,"elevationMeters":52,"powerKilowatt":250,"solarCanopy":false,"battery":false,"otherEVs":true,"statusDays":0,"urlDiscuss":false,"stalls":{"v3":3},"plugs":{"tpc":3,"nacs":0,"ccs1":3,"multi":3}},{"id":3500,"locationId":"seoulseochosupercharger","name":"Seoul, South Korea - Seocho Ssangyong Platinum","status":"OPEN","address":{"street":"18, Seochojungang-ro, Seocho-gu","city":"Seoul","state":"Seoul","zip":null,"countryId":137,"country":"South Korea","regionId":102,"region":"Asia Pacific"},"gps":{"latitude":37.48406,"longitude":127.01732},"dateOpened":"2021-07-01","stallCount":6,"counted":true,"elevationMeters":40,"powerKilowatt":250,"solarCanopy":false,"battery":false,"otherEVs":false,"statusDays":0,"urlDiscuss":false,"stalls":{"v3":6},"plugs":{"tpc":6,"nacs":0}},{"id":3497,"locationId":"suncheonsupercharger","name":"Suncheon, South Korea - Joryedong","status":"OPEN","address":{"street":"640 Jorye-dong","city":"Suncheon","state":"Jeollanam","zip":null,"countryId":137,"country":"South Korea","regionId":102,"region":"Asia Pacific"},"gps":{"latitude":34.96316,"longitude":127.52554},"dateOpened":"2021-07-01","stallCount":8,"counted":true,"elevationMeters":25,"powerKilowatt":250,"solarCanopy":false,"battery":false,"otherEVs":true,"statusDays":0,"urlDiscuss":false,"stalls":{"v3":8},"plugs":{"tpc":8,"nacs":0,"ccs1":8,"multi":8}},{"id":3477,"locationId":"seoulseongsusupercharger","name":"Seoul, South Korea - Wangsimni","status":"OPEN","address":{"street":"17, Wangsimni Gwangjang-ro, Seongdong-gu","city":"Seoul","state":"Seoul","zip":null,"countryId":137,"country":"South Korea","regionId":102,"region":"Asia Pacific"},"gps":{"latitude":37.5604,"longitude":127.0386},"dateOpened":"2021-06-25","stallCount":6,"counted":true,"elevationMeters":18,"powerKilowatt":250,"solarCanopy":false,"battery":false,"otherEVs":false,"statusDays":0,"urlDiscuss":false,"stalls":{"v3":6},"plugs":{"tpc":6,"nacs":0}},{"id":3476,"locationId":"daeguhyuksinlsupercharger","name":"Daegu, South Korea - Esiapolis","status":"OPEN","address":{"street":"16, Palgong-ro 49-gil, Dong-gu, Daegu","city":"Daegu","state":"Chungcheongbuk","zip":null,"countryId":137,"country":"South Korea","regionId":102,"region":"Asia Pacific"},"gps":{"latitude":35.9229,"longitude":128.63571},"dateOpened":"2021-06-25","stallCount":6,"counted":true,"elevationMeters":27,"powerKilowatt":250,"solarCanopy":false,"battery":false,"otherEVs":true,"statusDays":0,"urlDiscuss":false,"stalls":{"v3":6},"plugs":{"tpc":6,"nacs":0,"ccs1":6,"multi":6}},{"id":3475,"locationId":"seolleungsupercharger","name":"Seoul, South Korea - Centerfield","status":"OPEN","address":{"street":"231, Teheran-ro, Gangnam-gu","city":"Seoul","state":"Seoul","zip":null,"countryId":137,"country":"South Korea","regionId":102,"region":"Asia Pacific"},"gps":{"latitude":37.503216,"longitude":127.04162},"dateOpened":"2021-06-24","stallCount":6,"counted":true,"elevationMeters":37,"powerKilowatt":250,"solarCanopy":false,"battery":false,"otherEVs":false,"statusDays":0,"urlDiscuss":false,"stalls":{"v3":6},"plugs":{"tpc":6,"nacs":0}},{"id":3462,"locationId":"gurosupercharger","name":"Seoul, South Korea - Guro G Tower","status":"OPEN","address":{"street":"38 Digital-ro 26-gil, Guro-gu","city":"Seoul","state":"Seoul","zip":null,"countryId":137,"country":"South Korea","regionId":102,"region":"Asia Pacific"},"gps":{"latitude":37.47984,"longitude":126.8953},"dateOpened":"2021-06-17","stallCount":9,"counted":true,"elevationMeters":18,"powerKilowatt":250,"solarCanopy":false,"battery":false,"otherEVs":false,"statusDays":0,"urlDiscuss":false,"stalls":{"v3":9},"plugs":{"tpc":9,"nacs":0}},{"id":3355,"locationId":"hwasungsupercharger","name":"Hwaseong, South Korea - BalAn","status":"OPEN","address":{"street":"806 Seohae-ro, Hyangnam-eup, Hwaseong-si, Gyeonggi-do","city":"Hwaseong","state":"Gyeonggi","zip":null,"countryId":137,"country":"South Korea","regionId":102,"region":"Asia Pacific"},"gps":{"latitude":37.13485,"longitude":126.895718},"dateOpened":"2021-04-30","stallCount":6,"counted":true,"elevationMeters":40,"powerKilowatt":250,"solarCanopy":false,"battery":false,"otherEVs":false,"statusDays":0,"urlDiscuss":false,"stalls":{"v3":6},"plugs":{"tpc":6,"nacs":0}},{"id":3356,"locationId":"jincheonsupercharger","name":"Jincheon, South Korea - Root Square","status":"OPEN","address":{"street":"02-1 Naechon-ri, Iwol-myeon, Jincheon-gun, Chungcheongbuk-do","city":"Jincheon","state":"Chungcheongbuk","zip":null,"countryId":137,"country":"South Korea","regionId":102,"region":"Asia Pacific"},"gps":{"latitude":36.9422,"longitude":127.43131},"dateOpened":"2021-04-30","stallCount":8,"counted":true,"elevationMeters":89,"powerKilowatt":250,"solarCanopy":false,"battery":false,"otherEVs":false,"statusDays":0,"urlDiscuss":false,"stalls":{"v3":8},"plugs":{"tpc":8,"nacs":0}},{"id":3332,"locationId":"chungjusupercharger","name":"Chungju, South Korea - Daesowon Home Mart","status":"OPEN","address":{"street":"26, Enterprise City-ro, Chungju-si, Chungcheongbuk-do","city":"Chungju","state":"Chungcheongbuk","zip":"27465","countryId":137,"country":"South Korea","regionId":102,"region":"Asia Pacific"},"gps":{"latitude":37.0016,"longitude":127.83573},"dateOpened":"2021-04-19","stallCount":8,"counted":true,"elevationMeters":0,"powerKilowatt":250,"solarCanopy":false,"battery":false,"otherEVs":false,"statusDays":0,"urlDiscuss":false,"stalls":{"v3":8},"plugs":{"tpc":8,"nacs":0}},{"id":3284,"locationId":"yeojusupercharger","name":"Yeoju, South Korea - SSG Premium Outlet","status":"OPEN","address":{"street":"360 Myeongpum-ro, Yeoju-si, Gyeonggi-do","city":"Yeoju","state":"Gyeonggi","zip":"12646","countryId":137,"country":"South Korea","regionId":102,"region":"Asia Pacific"},"gps":{"latitude":37.240451,"longitude":127.613829},"dateOpened":"2021-03-30","stallCount":8,"counted":true,"elevationMeters":113,"powerKilowatt":250,"solarCanopy":false,"battery":false,"otherEVs":false,"statusDays":0,"urlDiscuss":false,"stalls":{"v3":8},"plugs":{"tpc":8,"nacs":0}},{"id":3283,"locationId":"ilsansupercharger","name":"Goyang, South Korea - Ilsan N2Wash","status":"OPEN","address":{"street":"31 Janghang-ro, Goyang-si, Gyeonggi-do 1043","city":"Goyang","state":"Gyeonggi","zip":null,"countryId":137,"country":"South Korea","regionId":102,"region":"Asia Pacific"},"gps":{"latitude":37.629688,"longitude":126.791093},"dateOpened":"2021-03-30","stallCount":8,"counted":true,"elevationMeters":8,"powerKilowatt":250,"solarCanopy":false,"battery":false,"otherEVs":false,"statusDays":0,"urlDiscuss":false,"stalls":{"v3":8},"plugs":{"tpc":8,"nacs":0}},{"id":3285,"locationId":"yonginsupercharger","name":"Yongin, South Korea - Giheung","status":"OPEN","address":{"street":"124 Singomae-ro, Yongin-si, Gyeonggi-do","city":"Yongin","state":"Gyeonggi","zip":"17087","countryId":137,"country":"South Korea","regionId":102,"region":"Asia Pacific"},"gps":{"latitude":37.225032,"longitude":127.123109},"dateOpened":"2021-03-30","stallCount":6,"counted":true,"elevationMeters":116,"powerKilowatt":250,"solarCanopy":false,"battery":false,"otherEVs":false,"statusDays":0,"urlDiscuss":false,"stalls":{"v3":6},"plugs":{"tpc":6,"nacs":0}},{"id":2503,"locationId":"busanservice","name":"Busan, South Korea - Yeonje","status":"OPEN","address":{"street":"290 Jwasuyeong-ro, Yeonje-gu","city":"Busan","state":"Busan","zip":null,"countryId":137,"country":"South Korea","regionId":102,"region":"Asia Pacific"},"gps":{"latitude":35.188372,"longitude":129.110238},"dateOpened":"2020-09-19","stallCount":4,"counted":true,"elevationMeters":12,"powerKilowatt":120,"solarCanopy":false,"battery":false,"otherEVs":false,"statusDays":0,"urlDiscuss":true,"stalls":{"v2":4},"plugs":{"tpc":4,"nacs":0}},{"id":2233,"locationId":"seoulteheransupercharger","name":"Seoul, South Korea - N Tower","status":"OPEN","address":{"street":"29 Teheran-ro, Gangnam-gu, Seoul","city":"Seoul","state":"Seoul","zip":null,"countryId":137,"country":"South Korea","regionId":102,"region":"Asia Pacific"},"gps":{"latitude":37.499873,"longitude":127.032354},"dateOpened":"2019-12-31","stallCount":4,"counted":true,"elevationMeters":45,"powerKilowatt":120,"solarCanopy":false,"battery":false,"otherEVs":false,"statusDays":0,"urlDiscuss":false,"stalls":{"v2":4},"plugs":{"tpc":4,"nacs":0},"parkingId":5,"addressNotes":"Level B4"},{"id":2224,"locationId":"busannamgusupercharger","name":"Busan, South Korea - Namgu IFC","status":"OPEN","address":{"street":"133, Jeonpo-daero, Nam-gu, Busan","city":"Busan","state":"Busan","zip":null,"countryId":137,"country":"South Korea","regionId":102,"region":"Asia Pacific"},"gps":{"latitude":35.148279,"longitude":129.065439},"dateOpened":"2019-12-24","stallCount":4,"counted":true,"elevationMeters":16,"powerKilowatt":120,"solarCanopy":false,"battery":false,"otherEVs":false,"statusDays":0,"urlDiscuss":false,"stalls":{"v2":4},"plugs":{"tpc":4,"nacs":0}},{"id":2226,"locationId":"hanamsupercharger","name":"Hanam, South Korea - Starfield","status":"OPEN","address":{"street":"750 Misa-daero, Hanam-si, Gyeonggi-do","city":"Hanam","state":"Gyeonggi","zip":"12942","countryId":137,"country":"South Korea","regionId":102,"region":"Asia Pacific"},"gps":{"latitude":37.545551,"longitude":127.223682},"dateOpened":"2019-12-24","stallCount":6,"counted":true,"elevationMeters":25,"powerKilowatt":120,"solarCanopy":false,"battery":false,"otherEVs":false,"statusDays":0,"urlDiscuss":false,"stalls":{"v2":6},"plugs":{"tpc":6,"nacs":0}},{"id":2222,"locationId":"songdoincheonsupercharger","name":"Incheon, South Korea - Songdo Triple Street","status":"OPEN","address":{"street":"33-4 Songdo Gwahak-ro 16beon-gil, Incheon 21984","city":"Incheon","state":"Incheon","zip":"21984","countryId":137,"country":"South Korea","regionId":102,"region":"Asia Pacific"},"gps":{"latitude":37.378678,"longitude":126.662796},"dateOpened":"2019-12-24","stallCount":8,"counted":true,"elevationMeters":0,"powerKilowatt":250,"solarCanopy":false,"battery":false,"otherEVs":true,"statusDays":0,"urlDiscuss":false,"stalls":{"v3":8},"plugs":{"tpc":8,"nacs":0,"ccs1":8,"multi":8}},{"id":2215,"locationId":"dangjinsupercharger","name":"Dangjin, South Korea","status":"OPEN","address":{"street":"63, Songak-ro, Songak-eup","city":"Dangjin","state":"Chungcheongnam","zip":null,"countryId":137,"country":"South Korea","regionId":102,"region":"Asia Pacific"},"gps":{"latitude":36.909503,"longitude":126.69407466},"dateOpened":"2019-12-20","stallCount":4,"counted":true,"elevationMeters":42,"powerKilowatt":120,"solarCanopy":false,"battery":false,"otherEVs":false,"statusDays":0,"urlDiscuss":false,"stalls":{"v2":4,"accessible":0,"trailerFriendly":0},"plugs":{"tpc":4}},{"id":2216,"locationId":"seoulgangseosupercharger","name":"Seoul, South Korea - Gimpo Airport Lotte Mall","status":"OPEN","address":{"street":"38 Haneul-gil, Gangseo-gu, Seoul","city":"Seoul","state":"Seoul","zip":null,"countryId":137,"country":"South Korea","regionId":102,"region":"Asia Pacific"},"gps":{"latitude":37.563265,"longitude":126.803108},"dateOpened":"2019-12-20","stallCount":4,"counted":true,"elevationMeters":13,"powerKilowatt":120,"solarCanopy":false,"battery":false,"otherEVs":false,"statusDays":0,"urlDiscuss":false,"stalls":{"v2":4},"plugs":{"tpc":4,"nacs":0}},{"id":2122,"locationId":"bundangsupercharger","name":"Seongnam, South Korea - Bundang","status":"OPEN","address":{"street":"20, Tancheonsang-ro 151beon-gil, Seongnam-si, Gyeonggi-do","city":"Seongnam","state":"Gyeonggi","zip":null,"countryId":137,"country":"South Korea","regionId":102,"region":"Asia Pacific"},"gps":{"latitude":37.340546,"longitude":127.106848},"dateOpened":"2019-10-02","stallCount":6,"counted":true,"elevationMeters":71,"powerKilowatt":120,"solarCanopy":false,"battery":false,"otherEVs":false,"statusDays":0,"urlDiscuss":false,"stalls":{"v2":6},"plugs":{"tpc":6,"nacs":0}},{"id":2101,"locationId":"gangnnamsupercharger","name":"Seoul, South Korea - Apgujeong","status":"OPEN","address":{"street":"854 Nonhyeon-ro, Gangnam-gu, Seoul","city":"Seoul","state":"Seoul","zip":null,"countryId":137,"country":"South Korea","regionId":102,"region":"Asia Pacific"},"gps":{"latitude":37.52541809,"longitude":127.02887026},"dateOpened":"2019-09-11","stallCount":4,"counted":true,"elevationMeters":32,"powerKilowatt":120,"solarCanopy":false,"battery":false,"otherEVs":false,"statusDays":0,"urlDiscuss":false,"stalls":{"v2":4},"plugs":{"tpc":4,"nacs":0},"parkingId":5},{"id":2029,"locationId":"gunsansupercharger","name":"Gunsan, South Korea","status":"OPEN","address":{"street":"1321 Beonyeong-ro, Daeya-myeon, Gunsan-si, Jeollabuk-do","city":"Gunsan","state":"Jeollabuk","zip":null,"countryId":137,"country":"South Korea","regionId":102,"region":"Asia Pacific"},"gps":{"latitude":35.937086,"longitude":126.855631},"dateOpened":"2019-07-02","stallCount":8,"counted":true,"elevationMeters":8,"powerKilowatt":120,"solarCanopy":false,"battery":false,"otherEVs":false,"statusDays":0,"urlDiscuss":false,"stalls":{"v2":8},"plugs":{"tpc":8,"nacs":0}},{"id":2020,"locationId":"hamyangsupercharger","name":"Hamyang, South Korea","status":"OPEN","address":{"street":"298 Goun-ro, Hamyang-eup, Hamyang-gun, Gyeongsangnam-do","city":"Hamyang","state":"Gyeongsangnam","zip":null,"countryId":137,"country":"South Korea","regionId":102,"region":"Asia Pacific"},"gps":{"latitude":35.524635,"longitude":127.75314},"dateOpened":"2019-06-28","stallCount":6,"counted":true,"elevationMeters":180,"powerKilowatt":120,"solarCanopy":false,"battery":false,"otherEVs":false,"statusDays":0,"urlDiscuss":false,"stalls":{"v2":6},"plugs":{"tpc":6,"nacs":0}},{"id":2013,"locationId":"nonsansupercharger","name":"Nonsan, South Korea - Laon Village","status":"OPEN","address":{"street":"36, Dongan-ro 1113beon-gil, Yeonmu-eup, Nonsan-si, Chungcheongnam-do","city":"Nonsan","state":"Chungcheongnam","zip":null,"countryId":137,"country":"South Korea","regionId":102,"region":"Asia Pacific"},"gps":{"latitude":36.12882428,"longitude":127.12962019},"dateOpened":"2019-06-20","stallCount":4,"counted":true,"elevationMeters":29,"powerKilowatt":120,"solarCanopy":false,"battery":false,"otherEVs":false,"statusDays":0,"urlDiscuss":false,"stalls":{"v2":4},"plugs":{"tpc":4,"nacs":0}},{"id":1911,"locationId":"sintanjinsupercharger","name":"Shintanjin, South Korea","status":"OPEN","address":{"street":"490 Sintanjin-ro, Daejeon","city":"Daejeon","state":"Daejeon","zip":"34335","countryId":137,"country":"South Korea","regionId":102,"region":"Asia Pacific"},"gps":{"latitude":36.423696,"longitude":127.419877},"dateOpened":"2019-04-02","stallCount":12,"counted":true,"elevationMeters":61,"powerKilowatt":250,"solarCanopy":false,"battery":false,"otherEVs":false,"statusDays":0,"urlDiscuss":false,"stalls":{"v2":6,"v3":6},"plugs":{"tpc":12,"nacs":0,"ccs1":6,"multi":6}},{"id":1806,"locationId":"sangjusupercharger","name":"Sangju, South Korea","status":"OPEN","address":{"street":"4207, Gyeongsang-daero, Sangju-si, Gyeongsangbuk-do","city":"Sangju","state":"Gyeongsangbuk","zip":"37132","countryId":137,"country":"South Korea","regionId":102,"region":"Asia Pacific"},"gps":{"latitude":36.515931,"longitude":128.1634319},"dateOpened":"2018-12-13","stallCount":12,"counted":true,"elevationMeters":70,"powerKilowatt":250,"solarCanopy":false,"battery":false,"otherEVs":false,"statusDays":0,"urlDiscuss":false,"stalls":{"v2":6,"v3":6},"plugs":{"tpc":12,"nacs":0,"ccs1":6,"multi":6}},{"id":1804,"locationId":"jinjusksupercharger","name":"Jinju, South Korea - Lotte Mall","status":"OPEN","address":{"street":"440 Dongjin-ro, Jinju-si, Gyeongsangnam-do","city":"Jinju","state":"Gyeongsangnam","zip":"52851","countryId":137,"country":"South Korea","regionId":102,"region":"Asia Pacific"},"gps":{"latitude":35.1802627,"longitude":128.1397201},"dateOpened":"2018-12-12","stallCount":9,"counted":true,"elevationMeters":21,"powerKilowatt":250,"solarCanopy":false,"battery":false,"otherEVs":true,"statusDays":0,"urlDiscuss":false,"stalls":{"v3":9},"plugs":{"tpc":9,"nacs":0,"ccs1":9,"multi":9}},{"id":1553,"locationId":"suwonsupercharger","name":"Suwon, South Korea - Lotte Mall","status":"OPEN","address":{"street":"Sehwado 134, Gwon Seong-gu","city":"Suwon","state":"Gyeonggi","zip":null,"countryId":137,"country":"South Korea","regionId":102,"region":"Asia Pacific"},"gps":{"latitude":37.264011,"longitude":126.996636},"dateOpened":"2018-03-27","stallCount":4,"counted":true,"elevationMeters":35,"powerKilowatt":120,"solarCanopy":false,"battery":false,"otherEVs":false,"statusDays":0,"urlDiscuss":false,"stalls":{"v2":4},"plugs":{"tpc":4,"nacs":0}},{"id":1528,"locationId":"goyangsupercharger","name":"Goyang, South Korea","status":"OPEN","address":{"street":"Ilsandong-gu, Janghang 1(il)-dong, 1245 -dong","city":"Goyang-si","state":"Gyeonggi","zip":null,"countryId":137,"country":"South Korea","regionId":102,"region":"Asia Pacific"},"gps":{"latitude":37.661945,"longitude":126.750771},"dateOpened":"2018-03-03","stallCount":4,"counted":true,"elevationMeters":7,"powerKilowatt":120,"solarCanopy":false,"battery":false,"otherEVs":false,"statusDays":0,"urlDiscuss":true,"stalls":{"v2":4},"plugs":{"tpc":4,"nacs":0}},{"id":1459,"locationId":"32969","name":"Seongnam, South Korea - Pangyo DeTerrace","status":"OPEN","address":{"street":"Seongnam Sampyeongdong 691 13488","city":"Seongnam","state":"Gyeonggi","zip":"13488","countryId":137,"country":"South Korea","regionId":102,"region":"Asia Pacific"},"gps":{"latitude":37.403642,"longitude":127.109051},"dateOpened":"2017-12-22","stallCount":9,"counted":true,"elevationMeters":73,"powerKilowatt":250,"solarCanopy":false,"battery":false,"otherEVs":true,"statusDays":0,"urlDiscuss":true,"stalls":{"v3":9},"plugs":{"tpc":9,"nacs":0,"ccs1":9,"multi":9}},{"id":1460,"locationId":"seoulyongsansupercharger","name":"Seoul, South Korea - Yongsan Grand Hyatt","status":"OPEN","address":{"street":"322 Sowolno, Yongsan-gu","city":"Seoul","state":"Seoul","zip":null,"countryId":137,"country":"South Korea","regionId":102,"region":"Asia Pacific"},"gps":{"latitude":37.539341,"longitude":126.997137},"dateOpened":"2017-12-22","stallCount":4,"counted":true,"elevationMeters":104,"powerKilowatt":120,"solarCanopy":false,"battery":false,"otherEVs":false,"statusDays":0,"urlDiscuss":true,"stalls":{"v2":4},"plugs":{"tpc":4,"nacs":0}},{"id":1440,"locationId":"seogwiposupercharger","name":"Seogwipo, South Korea - Lotte Hotel","status":"OPEN","address":{"street":"Jungmungwangwang-ro72beon-gil Saekdal-dong","city":"Seogwipo","state":"Jeju","zip":null,"countryId":137,"country":"South Korea","regionId":102,"region":"Asia Pacific"},"gps":{"latitude":33.249844,"longitude":126.409044},"dateOpened":"2017-12-12","stallCount":12,"counted":true,"elevationMeters":67,"powerKilowatt":120,"solarCanopy":false,"battery":false,"otherEVs":false,"statusDays":0,"urlDiscuss":false,"stalls":{"v2":12},"plugs":{"tpc":12,"nacs":0}},{"id":1418,"locationId":"sokchogangwondosupercharger","name":"Sokcho, South Korea - Lotte Resort","status":"OPEN","address":{"street":"186 Daepohang-gil, Sokcho-si, Gangwon-do 24900대포항길 186","city":"Sokcho","state":"Gangwon","zip":"24900","countryId":137,"country":"South Korea","regionId":102,"region":"Asia Pacific"},"gps":{"latitude":38.180856,"longitude":128.611593},"dateOpened":"2017-12-01","stallCount":7,"counted":true,"elevationMeters":38,"powerKilowatt":250,"solarCanopy":false,"battery":false,"otherEVs":true,"statusDays":0,"urlDiscuss":false,"stalls":{"v2":4,"v3":3},"plugs":{"tpc":7,"nacs":0,"ccs1":3,"multi":3}},{"id":1396,"locationId":"gangneungsupercharger","name":"Gangneung, South Korea - Lakai Sandpine","status":"OPEN","address":{"street":"536 Haean-ro, Gangneung-si, Gangwon-do","city":"Gangneung","state":"Gangwon","zip":"25460","countryId":137,"country":"South Korea","regionId":102,"region":"Asia Pacific"},"gps":{"latitude":37.80534,"longitude":128.904599},"dateOpened":"2017-11-16","stallCount":8,"counted":true,"elevationMeters":100,"powerKilowatt":250,"solarCanopy":false,"battery":false,"otherEVs":false,"statusDays":0,"urlDiscuss":false,"stalls":{"v3":8},"plugs":{"tpc":8,"nacs":0}},{"id":1327,"locationId":"gwangjusupercharger","name":"Gwangju, South Korea - Holiday Inn","status":"OPEN","address":{"street":"Sangmupyeonghwa-ro","city":"Seo-gu","state":"Gwangju","zip":null,"countryId":137,"country":"South Korea","regionId":102,"region":"Asia Pacific"},"gps":{"latitude":35.147921,"longitude":126.837407},"dateOpened":"2017-10-09","stallCount":6,"counted":true,"elevationMeters":15,"powerKilowatt":115,"solarCanopy":false,"battery":false,"otherEVs":false,"statusDays":0,"urlDiscuss":false,"stalls":{"v2":6},"plugs":{"tpc":6,"nacs":0}},{"id":1328,"locationId":"seouljamsilsupercharger","name":"Seoul, South Korea - Lotte World Tower","status":"OPEN","address":{"street":"Olympic-ro","city":"Songpa-gu","state":"Seoul","zip":null,"countryId":137,"country":"South Korea","regionId":102,"region":"Asia Pacific"},"gps":{"latitude":37.513395,"longitude":127.102238},"dateOpened":"2017-10-09","stallCount":6,"counted":true,"elevationMeters":23,"powerKilowatt":120,"solarCanopy":false,"battery":false,"otherEVs":false,"statusDays":0,"urlDiscuss":false,"stalls":{"v2":6},"plugs":{"tpc":6,"nacs":0}},{"id":1196,"locationId":"busansupercharger","name":"Busan, South Korea - Haewoondae Paradise","status":"OPEN","address":{"street":"296 Haeundae Beach-ro, Haeundae-gu, Busan","city":"Busan","state":"Busan","zip":null,"countryId":137,"country":"South Korea","regionId":102,"region":"Asia Pacific"},"gps":{"latitude":35.160676,"longitude":129.163823},"dateOpened":"2017-07-17","stallCount":3,"counted":true,"elevationMeters":17,"powerKilowatt":250,"solarCanopy":false,"battery":false,"otherEVs":true,"statusDays":0,"urlDiscuss":false,"stalls":{"v3":3},"plugs":{"tpc":3,"nacs":0,"ccs1":3,"multi":3},"facilityName":"Haewoondae Paradise"},{"id":1154,"locationId":"daegusupercharger","name":"Daegu, South Korea - EXCO","status":"OPEN","address":{"street":"10, EXCO-ro, Buk-gu, Daegu","city":"Daegu","state":"Daegu","zip":null,"countryId":137,"country":"South Korea","regionId":102,"region":"Asia Pacific"},"gps":{"latitude":35.907022,"longitude":128.613115},"dateOpened":"2017-06-19","stallCount":6,"counted":true,"elevationMeters":35,"powerKilowatt":120,"solarCanopy":false,"battery":false,"otherEVs":false,"statusDays":0,"urlDiscuss":false,"stalls":{"v2":6},"plugs":{"tpc":6,"nacs":0}},{"id":1153,"locationId":"seoulyeouidosupercharger","name":"Seoul, South Korea - Yeoido IFC","status":"OPEN","address":{"street":"10, Gukjegeumyung-ro, Yeongdeungpo-gu, Seoul","city":"Seoul","state":"Seoul","zip":null,"countryId":137,"country":"South Korea","regionId":102,"region":"Asia Pacific"},"gps":{"latitude":37.52526,"longitude":126.925714},"dateOpened":"2017-06-19","stallCount":4,"counted":true,"elevationMeters":17,"powerKilowatt":250,"solarCanopy":false,"battery":false,"otherEVs":true,"statusDays":0,"urlDiscuss":false,"stalls":{"v3":4},"plugs":{"tpc":4,"nacs":0,"ccs1":4,"multi":4}},{"id":1132,"locationId":"wonjusupercharger","name":"Wonju, South Korea - Oak Valley","status":"OPEN","address":{"street":"58, Oak Valley 2-gil, Jijeong-myeon, Wonju-si, Gangwon-do","city":"Wonju","state":"Gangwon","zip":null,"countryId":137,"country":"South Korea","regionId":102,"region":"Asia Pacific"},"gps":{"latitude":37.435072,"longitude":127.818718},"dateOpened":"2017-06-18","stallCount":6,"counted":true,"elevationMeters":296,"powerKilowatt":120,"solarCanopy":false,"battery":false,"otherEVs":false,"statusDays":0,"urlDiscuss":false,"stalls":{"v2":6},"plugs":{"tpc":6,"nacs":0}},{"id":1116,"locationId":"3433","name":"Cheonan, South Korea - Sono Belle","status":"OPEN","address":{"street":"Cheonan-si, Chungcheongnam-do 200","city":"Cheonan","state":"Chungcheongnam","zip":"31246","countryId":137,"country":"South Korea","regionId":102,"region":"Asia Pacific"},"gps":{"latitude":36.755229,"longitude":127.224454},"dateOpened":"2017-05-31","stallCount":6,"counted":true,"elevationMeters":112,"powerKilowatt":120,"solarCanopy":false,"battery":false,"otherEVs":false,"statusDays":0,"urlDiscuss":false,"stalls":{"v2":6,"accessible":0,"trailerFriendly":0},"plugs":{"tpc":6}},{"id":1115,"locationId":"seoulgangnamsupercharger","name":"Seoul, South Korea - Gangnam","status":"OPEN","address":{"street":"521 Teheran-ro, Gangnam-gu, Seoul","city":"Seoul","state":"Seoul","zip":null,"countryId":137,"country":"South Korea","regionId":102,"region":"Asia Pacific"},"gps":{"latitude":37.509215,"longitude":127.06079},"dateOpened":"2017-05-31","stallCount":5,"counted":true,"elevationMeters":30,"powerKilowatt":120,"solarCanopy":false,"battery":false,"otherEVs":false,"statusDays":0,"urlDiscuss":false,"stalls":{"v2":5},"plugs":{"tpc":5,"nacs":0}},{"id":1130,"locationId":"seouljongnosupercharger","name":"Seoul, South Korea - Jongno","status":"CLOSED_PERM","address":{"street":"33, Jong-ro, Jongno-gu, Seoul","city":"Seoul","state":"Seoul","zip":null,"countryId":137,"country":"South Korea","regionId":102,"region":"Asia Pacific"},"gps":{"latitude":37.570693,"longitude":126.981511},"dateOpened":"2017-06-12","dateClosed":"2024-06-14","stallCount":6,"counted":true,"elevationMeters":45,"powerKilowatt":120,"solarCanopy":false,"battery":false,"otherEVs":false,"statusDays":561,"urlDiscuss":false,"stalls":{"v2":6},"plugs":{"tpc":6,"nacs":0}},{"id":6167,"locationId":"36054","name":"Busan, South Korea - KNN Tower","status":"CLOSED_PERM","address":{"street":"30 Centumseo-ro, Busan U 2(i)-dong","city":"Busan","state":"Busan","zip":"48058","countryId":137,"country":"South Korea","regionId":102,"region":"Asia Pacific"},"gps":{"latitude":35.171962,"longitude":129.128564},"dateOpened":"2023-04-17","dateClosed":"2024-09-26","stallCount":6,"counted":true,"elevationMeters":7,"powerKilowatt":250,"solarCanopy":false,"battery":false,"otherEVs":true,"statusDays":457,"urlDiscuss":false,"stalls":{"v3":6},"plugs":{"tpc":6,"nacs":0,"ccs1":6,"multi":6}},{"id":2223,"locationId":"busangangseosupercharger","name":"Busan, South Korea - Gangseo","status":"CLOSED_TEMP","address":{"street":"361-68 Daejeo 1-dong, Gangseo-gu, Busan","city":"Busan","state":"Busan","zip":null,"countryId":137,"country":"South Korea","regionId":102,"region":"Asia Pacific"},"gps":{"latitude":35.219392,"longitude":128.988331},"dateOpened":"2019-12-23","dateClosed":"2025-10-05","stallCount":6,"counted":true,"elevationMeters":6,"powerKilowatt":120,"solarCanopy":false,"battery":false,"otherEVs":false,"statusDays":66,"urlDiscuss":false,"stalls":{"v2":6},"plugs":{"tpc":6,"nacs":0}},{"id":2225,"locationId":"gapyeongsupercharger","name":"Gapyeong, South Korea - Seorak","status":"CLOSED_TEMP","address":{"street":"3 Misari-ro, Seorak-myeon, Gapyeong-gun, Gyeonggi-do","city":"Gapyeong","state":"Gyeonggi","zip":null,"countryId":137,"country":"South Korea","regionId":102,"region":"Asia Pacific"},"gps":{"latitude":37.686451,"longitude":127.49363},"dateOpened":"2019-12-23","dateClosed":"2025-04-05","stallCount":6,"counted":true,"elevationMeters":63,"powerKilowatt":120,"solarCanopy":false,"battery":false,"otherEVs":false,"statusDays":266,"urlDiscuss":false,"stalls":{"v2":6},"plugs":{"tpc":6,"nacs":0},"parkingId":5}]}
