[{"id":10828,"name":"Gongju, South Korea - 57 Nonsan Cheonan Expressway","dateOpened":"2026-01-16","dateClosed":null,"gps":{"latitude":36.571868,"longitude":127.112998},"stallCount":8,"stalls":{"v4":8},"status":"OPEN","powerKilowatt":325},{"id":10826,"name":"Gongju, South Korea - Nonsan Cheonan Expressway","dateOpened":"2026-01-16","dateClosed":null,"gps":{"latitude":36.351948,"longitude":127.068932},"stallCount":8,"stalls":{"v4":8},"status":"OPEN","powerKilowatt":325},{"id":10827,"name":"Gongju, South Korea - 58 Nonsan Cheonan Expressway","dateOpened":"2025-12-31","dateClosed":null,"gps":{"latitude":36.568583,"longitude":127.114253},"stallCount":8,"stalls":{"v4":8},"status":"OPEN","powerKilowatt":325},{"id":10825,"name":"Gongju, South Korea - 27 Nonsan Cheonan Expressway","dateOpened":"2025-12-31","dateClosed":null,"gps":{"latitude":36.320066,"longitude":127.070771},"stallCount":8,"stalls":{"v4":8},"status":"OPEN","powerKilowatt":325},{"id":10830,"name":"Pyeongchang-gun, South Korea - Tapgeori-gil","dateOpened":"2025-12-30","dateClosed":null,"gps":{"latitude":37.609702,"longitude":128.463859},"stallCount":8,"stalls":{"v4":8},"status":"OPEN","powerKilowatt":325},{"id":8556,"name":"Ansan, South Korea - Gwangdeok4","dateOpened":"2025-12-24","dateClosed":null,"gps":{"latitude":37.315449,"longitude":126.838271},"stallCount":8,"stalls":{"other":8},"status":"OPEN","powerKilowatt":250},{"id":9308,"name":"Sokcho-si, South Korea - Joyang-dong","dateOpened":"2025-11-08","dateClosed":null,"gps":{"latitude":38.191518,"longitude":128.591151},"stallCount":4,"stalls":{"other":4},"status":"OPEN","powerKilowatt":250},{"id":10046,"name":"Gapyeong, South Korea - Gapyeong Rest Area (Seoul)","dateOpened":"2025-06-27","dateClosed":null,"gps":{"latitude":37.700836,"longitude":127.543466},"stallCount":3,"stalls":{"v4":3,"accessible":0,"trailerFriendly":0},"status":"OPEN","powerKilowatt":250},{"id":10045,"name":"Gapyeong, South Korea - Gapyeong Rest Area (Chuncheon)","dateOpened":"2025-06-27","dateClosed":null,"gps":{"latitude":37.702704,"longitude":127.546767},"stallCount":3,"stalls":{"v4":3,"accessible":0,"trailerFriendly":0},"status":"OPEN","powerKilowatt":250},{"id":10010,"name":"Cheonan, South Korea - Moda Outlet","dateOpened":"2025-06-13","dateClosed":null,"gps":{"latitude":36.79848,"longitude":127.101534},"stallCount":6,"stalls":{"v3":6,"trailerFriendly":0},"status":"OPEN","powerKilowatt":250},{"id":10008,"name":"Daejeon, South Korea - Moda Outlet","dateOpened":"2025-06-13","dateClosed":null,"gps":{"latitude":36.312761,"longitude":127.318712},"stallCount":4,"stalls":{"v3":4,"trailerFriendly":0},"status":"OPEN","powerKilowatt":250},{"id":9309,"name":"Daejeon, South Korea - Convention Center","dateOpened":"2024-12-27","dateClosed":null,"gps":{"latitude":36.37512,"longitude":127.391838},"stallCount":4,"stalls":{"v3":4},"status":"OPEN","powerKilowatt":250},{"id":9310,"name":"Gimhae, South Korea - JinYeong Complex Rest Area (Busan)","dateOpened":"2024-12-02","dateClosed":null,"gps":{"latitude":35.277662,"longitude":128.714763},"stallCount":8,"stalls":{"v3":8},"status":"OPEN","powerKilowatt":250},{"id":9109,"name":"Seoul, South Korea - Construction Building","dateOpened":"2024-10-14","dateClosed":null,"gps":{"latitude":37.517491,"longitude":127.033655},"stallCount":9,"stalls":{"v3":9},"status":"OPEN","powerKilowatt":250},{"id":8555,"name":"Seoul, South Korea - Joongrang","dateOpened":"2024-10-08","dateClosed":null,"gps":{"latitude":37.597782,"longitude":127.089543},"stallCount":4,"stalls":{"v3":4},"status":"OPEN","powerKilowatt":250},{"id":8065,"name":"Osan, South Korea - Moda Outlet","dateOpened":"2024-05-27","dateClosed":null,"gps":{"latitude":37.192775,"longitude":127.046176},"stallCount":6,"stalls":{"v3":6},"status":"OPEN","powerKilowatt":250},{"id":7963,"name":"Seoul, South Korea - Factorial Seongsu","dateOpened":"2024-04-25","dateClosed":null,"gps":{"latitude":37.54427,"longitude":127.05426},"stallCount":3,"stalls":{"v3":3,"accessible":0,"trailerFriendly":0},"status":"OPEN","powerKilowatt":250},{"id":7829,"name":"Suwon, South Korea - AK Plaza","dateOpened":"2024-04-01","dateClosed":null,"gps":{"latitude":37.266222,"longitude":126.999965},"stallCount":6,"stalls":{"v3":6},"status":"OPEN","powerKilowatt":250},{"id":7695,"name":"Gyeongju, South Korea - Silla Myeongga","dateOpened":"2024-03-09","dateClosed":null,"gps":{"latitude":35.820671,"longitude":129.213713},"stallCount":8,"stalls":{"v3":8},"status":"OPEN","powerKilowatt":250},{"id":7655,"name":"Pyeongtaek, South Korea - AK Plaza","dateOpened":"2024-02-25","dateClosed":null,"gps":{"latitude":36.990885,"longitude":127.085787},"stallCount":6,"stalls":{"v3":6},"status":"OPEN","powerKilowatt":250},{"id":7656,"name":"Gimhae, South Korea - Juchon","dateOpened":"2024-02-25","dateClosed":null,"gps":{"latitude":35.230549,"longitude":128.841514},"stallCount":8,"stalls":{"v3":8},"status":"OPEN","powerKilowatt":250},{"id":7619,"name":"Incheon, South Korea - Moda Outlet","dateOpened":"2024-02-16","dateClosed":null,"gps":{"latitude":37.512593,"longitude":126.647902},"stallCount":4,"stalls":{"v3":4},"status":"OPEN","powerKilowatt":250},{"id":7435,"name":"Jeonju, South Korea - Migok Roastery","dateOpened":"2024-01-16","dateClosed":null,"gps":{"latitude":35.841904,"longitude":127.173897},"stallCount":4,"stalls":{"v3":4},"status":"OPEN","powerKilowatt":250},{"id":7396,"name":"Uijeongbu, South Korea - Jangam Woorinara","dateOpened":"2024-01-06","dateClosed":null,"gps":{"latitude":37.700357,"longitude":127.056056},"stallCount":6,"stalls":{"v3":6},"status":"OPEN","powerKilowatt":250},{"id":7366,"name":"Wonju, South Korea - AK Plaza","dateOpened":"2024-01-02","dateClosed":null,"gps":{"latitude":37.345633,"longitude":127.927647},"stallCount":9,"stalls":{"v3":9},"status":"OPEN","powerKilowatt":250},{"id":7361,"name":"Seongnam, South Korea - Bundang Korea Job World","dateOpened":"2023-12-29","dateClosed":null,"gps":{"latitude":37.377561,"longitude":127.105285},"stallCount":8,"stalls":{"v3":8},"status":"OPEN","powerKilowatt":250},{"id":7229,"name":"Yangyang, South Korea - Mulchi Port","dateOpened":"2023-11-30","dateClosed":null,"gps":{"latitude":38.157992,"longitude":128.609508},"stallCount":6,"stalls":{"v3":6},"status":"OPEN","powerKilowatt":250},{"id":7228,"name":"Cheongju, South Korea - Gangseo","dateOpened":"2023-11-30","dateClosed":null,"gps":{"latitude":36.615622,"longitude":127.421102},"stallCount":12,"stalls":{"v3":12},"status":"OPEN","powerKilowatt":250},{"id":7212,"name":"Yongin, South Korea - Yangji Logistic","dateOpened":"2023-11-23","dateClosed":null,"gps":{"latitude":37.230118,"longitude":127.297972},"stallCount":8,"stalls":{"v3":8},"status":"OPEN","powerKilowatt":250},{"id":7211,"name":"Gwangju, South Korea - U Square","dateOpened":"2023-11-23","dateClosed":null,"gps":{"latitude":35.15985,"longitude":126.881908},"stallCount":6,"stalls":{"v3":6},"status":"OPEN","powerKilowatt":250},{"id":7146,"name":"Incheon, South Korea - Yeonsu","dateOpened":"2023-11-16","dateClosed":null,"gps":{"latitude":37.429588,"longitude":126.636677},"stallCount":6,"stalls":{"v3":6},"status":"OPEN","powerKilowatt":250},{"id":6934,"name":"Yeongwol, South Korea","dateOpened":"2023-09-26","dateClosed":null,"gps":{"latitude":37.179905,"longitude":128.447073},"stallCount":8,"stalls":{"v3":8},"status":"OPEN","powerKilowatt":250},{"id":6881,"name":"Namyangju, South Korea - Hwado This Plane","dateOpened":"2023-09-11","dateClosed":null,"gps":{"latitude":37.653969,"longitude":127.319334},"stallCount":6,"stalls":{"v3":6},"status":"OPEN","powerKilowatt":250},{"id":6853,"name":"Seoul, South Korea - Gangdong DM Square","dateOpened":"2023-09-06","dateClosed":null,"gps":{"latitude":37.567746,"longitude":127.160203},"stallCount":9,"stalls":{"v3":9},"status":"OPEN","powerKilowatt":250},{"id":6672,"name":"Jangheung, South Korea - Water Science Museum","dateOpened":"2023-07-27","dateClosed":null,"gps":{"latitude":34.686475,"longitude":126.89945},"stallCount":8,"stalls":{"v3":8},"status":"OPEN","powerKilowatt":250},{"id":6629,"name":"Yongin, South Korea - Pogok","dateOpened":"2023-07-17","dateClosed":null,"gps":{"latitude":37.275137,"longitude":127.212324},"stallCount":8,"stalls":{"v3":8},"status":"OPEN","powerKilowatt":250},{"id":6621,"name":"Ulsan, South Korea - Moda Outlet","dateOpened":"2023-07-17","dateClosed":null,"gps":{"latitude":35.577132,"longitude":129.357187},"stallCount":6,"stalls":{"v3":6},"status":"OPEN","powerKilowatt":250},{"id":6583,"name":"Ganghwa, South Korea - Seaside Resort","dateOpened":"2023-07-14","dateClosed":null,"gps":{"latitude":37.617667,"longitude":126.498967},"stallCount":8,"stalls":{"v3":8},"status":"OPEN","powerKilowatt":250},{"id":6552,"name":"Taebaek, South Korea","dateOpened":"2023-07-06","dateClosed":null,"gps":{"latitude":37.099323,"longitude":129.022323},"stallCount":8,"stalls":{"v3":8},"status":"OPEN","powerKilowatt":250},{"id":6502,"name":"Seoul, South Korea - Jonggak","dateOpened":"2023-06-26","dateClosed":null,"gps":{"latitude":37.571692,"longitude":126.983398},"stallCount":6,"stalls":{"v3":6},"status":"OPEN","powerKilowatt":250},{"id":6449,"name":"Jinju, South Korea - Moda Outlet","dateOpened":"2023-06-13","dateClosed":null,"gps":{"latitude":35.132783,"longitude":128.098612},"stallCount":6,"stalls":{"v3":6},"status":"OPEN","powerKilowatt":250},{"id":6405,"name":"Wanju, South Korea","dateOpened":"2023-06-05","dateClosed":null,"gps":{"latitude":35.989006,"longitude":127.118677},"stallCount":8,"stalls":{"v3":8},"status":"OPEN","powerKilowatt":250},{"id":6392,"name":"Busan, South Korea - Hadan Artmalling","dateOpened":"2023-06-02","dateClosed":null,"gps":{"latitude":35.106825,"longitude":128.966344},"stallCount":6,"stalls":{"v3":6},"status":"OPEN","powerKilowatt":250},{"id":6394,"name":"Hwaseong, South Korea - Dongtan Granvia Star","dateOpened":"2023-06-02","dateClosed":null,"gps":{"latitude":37.193989,"longitude":127.100422},"stallCount":9,"stalls":{"v3":9},"status":"OPEN","powerKilowatt":250},{"id":6281,"name":"Seoul, South Korea - Yongsan Dragon City","dateOpened":"2023-05-12","dateClosed":null,"gps":{"latitude":37.532075,"longitude":126.961448},"stallCount":12,"stalls":{"v3":12},"status":"OPEN","powerKilowatt":250},{"id":6242,"name":"Daegwallyeong, South Korea","dateOpened":"2023-05-04","dateClosed":null,"gps":{"latitude":37.685276,"longitude":128.757475},"stallCount":8,"stalls":{"v3":8},"status":"OPEN","powerKilowatt":250},{"id":6155,"name":"Seongnam, South Korea - Bundang AK Plaza","dateOpened":"2023-04-14","dateClosed":null,"gps":{"latitude":37.384052,"longitude":127.123452},"stallCount":9,"stalls":{"v3":9},"status":"OPEN","powerKilowatt":250},{"id":6131,"name":"Eumseong, South Korea - Daeso","dateOpened":"2023-04-08","dateClosed":null,"gps":{"latitude":36.977367,"longitude":127.487175},"stallCount":8,"stalls":{"v3":8},"status":"OPEN","powerKilowatt":250},{"id":6109,"name":"Andong, South Korea","dateOpened":"2023-04-05","dateClosed":null,"gps":{"latitude":36.591222,"longitude":128.631771},"stallCount":6,"stalls":{"v3":6},"status":"OPEN","powerKilowatt":250},{"id":6123,"name":"Goyang, South Korea - Haengju","dateOpened":"2023-04-05","dateClosed":null,"gps":{"latitude":37.603892,"longitude":126.822075},"stallCount":6,"stalls":{"v3":6},"status":"OPEN","powerKilowatt":250},{"id":6100,"name":"Icheon, South Korea - Termeden","dateOpened":"2023-04-03","dateClosed":null,"gps":{"latitude":37.196185,"longitude":127.446084},"stallCount":8,"stalls":{"v3":8},"status":"OPEN","powerKilowatt":250},{"id":6090,"name":"Seoul, South Korea - Episode Seocho","dateOpened":"2023-03-30","dateClosed":null,"gps":{"latitude":37.489749,"longitude":127.029875},"stallCount":6,"stalls":{"v3":6},"status":"OPEN","powerKilowatt":250},{"id":6079,"name":"Hanam, South Korea - Misa","dateOpened":"2023-03-30","dateClosed":null,"gps":{"latitude":37.568233,"longitude":127.196853},"stallCount":6,"stalls":{"v3":6},"status":"OPEN","powerKilowatt":250},{"id":6081,"name":"Hwaseong, South Korea - Dongtan-West Cafe Astana","dateOpened":"2023-03-30","dateClosed":null,"gps":{"latitude":37.218821,"longitude":127.054524},"stallCount":8,"stalls":{"v3":8},"status":"OPEN","powerKilowatt":250},{"id":6080,"name":"Seongnam, South Korea - Seohyun","dateOpened":"2023-03-30","dateClosed":null,"gps":{"latitude":37.385942,"longitude":127.12055},"stallCount":9,"stalls":{"v3":9},"status":"OPEN","powerKilowatt":250},{"id":6058,"name":"Haengdamdo Moda Outlet, South Korea","dateOpened":"2023-03-26","dateClosed":null,"gps":{"latitude":36.941454,"longitude":126.810368},"stallCount":8,"stalls":{"v3":8},"status":"OPEN","powerKilowatt":250},{"id":6057,"name":"Seoul, South Korea - Gocheok I Park Mall","dateOpened":"2023-03-26","dateClosed":null,"gps":{"latitude":37.498202,"longitude":126.860354},"stallCount":8,"stalls":{"v3":8},"status":"OPEN","powerKilowatt":250},{"id":6021,"name":"Gumi, South Korea - Hyeonggok","dateOpened":"2023-03-19","dateClosed":null,"gps":{"latitude":36.108823,"longitude":128.345332},"stallCount":8,"stalls":{"v3":8},"status":"OPEN","powerKilowatt":250},{"id":5980,"name":"Eumseong, South Korea - Geumwang","dateOpened":"2023-03-10","dateClosed":null,"gps":{"latitude":36.985529,"longitude":127.583869},"stallCount":8,"stalls":{"v3":8},"status":"OPEN","powerKilowatt":250},{"id":5940,"name":"Donghae, South Korea","dateOpened":"2023-02-27","dateClosed":null,"gps":{"latitude":37.514178,"longitude":129.102874},"stallCount":6,"stalls":{"v3":6},"status":"OPEN","powerKilowatt":250},{"id":5938,"name":"Yeoju, South Korea - Sun Valley Hotel","dateOpened":"2023-02-24","dateClosed":null,"gps":{"latitude":37.292913,"longitude":127.659963},"stallCount":6,"stalls":{"v3":6},"status":"OPEN","powerKilowatt":250},{"id":5914,"name":"Gwangmyeong, South Korea - Gwangmyeong Station","dateOpened":"2023-02-19","dateClosed":null,"gps":{"latitude":37.415567,"longitude":126.882563},"stallCount":8,"stalls":{"v3":8},"status":"OPEN","powerKilowatt":250},{"id":5814,"name":"Cheonan, South Korea - Central Church","dateOpened":"2023-01-18","dateClosed":null,"gps":{"latitude":36.841476,"longitude":127.151105},"stallCount":6,"stalls":{"v3":6},"status":"OPEN","powerKilowatt":250},{"id":5806,"name":"Seongnam, South Korea - Pangyo KAKAO Azit","dateOpened":"2023-01-16","dateClosed":null,"gps":{"latitude":37.395436,"longitude":127.110314},"stallCount":3,"stalls":{"v3":3},"status":"OPEN","powerKilowatt":250},{"id":5763,"name":"Samcheok, South Korea","dateOpened":"2023-01-03","dateClosed":null,"gps":{"latitude":37.429414,"longitude":129.183007},"stallCount":6,"stalls":{"v3":6,"trailerFriendly":0},"status":"OPEN","powerKilowatt":250},{"id":5761,"name":"Gangneung, South Korea - Terarosa","dateOpened":"2023-01-03","dateClosed":null,"gps":{"latitude":37.695857,"longitude":128.892696},"stallCount":8,"stalls":{"v3":8},"status":"OPEN","powerKilowatt":250},{"id":5765,"name":"Incheon, South Korea - Yeongjong Grand Hyatt East","dateOpened":"2023-01-03","dateClosed":null,"gps":{"latitude":37.440553,"longitude":126.457492},"stallCount":3,"stalls":{"v3":3},"status":"OPEN","powerKilowatt":250},{"id":5764,"name":"Incheon, South Korea - Yeongjong Grand Hyatt West","dateOpened":"2023-01-03","dateClosed":null,"gps":{"latitude":37.439944,"longitude":126.456153},"stallCount":3,"stalls":{"v3":3},"status":"OPEN","powerKilowatt":250},{"id":5762,"name":"Gangneung, South Korea - Saint Johns Hotel","dateOpened":"2023-01-03","dateClosed":null,"gps":{"latitude":37.79266,"longitude":128.918971},"stallCount":6,"stalls":{"v3":6},"status":"OPEN","powerKilowatt":250},{"id":5753,"name":"Seoul, South Korea - Daechi","dateOpened":"2023-01-01","dateClosed":null,"gps":{"latitude":37.506953,"longitude":127.065521},"stallCount":9,"stalls":{"v3":9},"status":"OPEN","powerKilowatt":250},{"id":5754,"name":"Suwon, South Korea - Yeongtong Fantaseum","dateOpened":"2023-01-01","dateClosed":null,"gps":{"latitude":37.245632,"longitude":127.062206},"stallCount":8,"stalls":{"v3":8},"status":"OPEN","powerKilowatt":250},{"id":5751,"name":"Paju, South Korea - Munsterdam","dateOpened":"2022-12-31","dateClosed":null,"gps":{"latitude":37.727181,"longitude":126.7836},"stallCount":8,"stalls":{"v3":8},"status":"OPEN","powerKilowatt":250},{"id":5752,"name":"Seoul, South Korea - SangAm","dateOpened":"2022-12-31","dateClosed":null,"gps":{"latitude":37.578525,"longitude":126.894257},"stallCount":6,"stalls":{"v3":6},"status":"OPEN","powerKilowatt":250},{"id":5739,"name":"Goyang, South Korea - OneMount","dateOpened":"2022-12-29","dateClosed":null,"gps":{"latitude":37.66556,"longitude":126.754793},"stallCount":11,"stalls":{"v3":11},"status":"OPEN","powerKilowatt":250},{"id":5738,"name":"Gunpo, South Korea - AK Plaza","dateOpened":"2022-12-29","dateClosed":null,"gps":{"latitude":37.371582,"longitude":126.94568},"stallCount":8,"stalls":{"v3":8},"status":"OPEN","powerKilowatt":250},{"id":5726,"name":"Goseong, South Korea - Ocean to You Resort","dateOpened":"2022-12-27","dateClosed":null,"gps":{"latitude":38.316114,"longitude":128.531046},"stallCount":8,"stalls":{"v3":8},"status":"OPEN","powerKilowatt":250},{"id":5628,"name":"Mokpo, South Korea","dateOpened":"2022-12-11","dateClosed":null,"gps":{"latitude":34.807314,"longitude":126.425745},"stallCount":8,"stalls":{"v3":8},"status":"OPEN","powerKilowatt":250},{"id":5573,"name":"Imsil, South Korea","dateOpened":"2022-11-29","dateClosed":null,"gps":{"latitude":35.63068,"longitude":127.303884},"stallCount":6,"stalls":{"v3":6},"status":"OPEN","powerKilowatt":250},{"id":5574,"name":"Sejong, South Korea - Daepyeong","dateOpened":"2022-11-29","dateClosed":null,"gps":{"latitude":36.468663,"longitude":127.267814},"stallCount":6,"stalls":{"v3":6},"status":"OPEN","powerKilowatt":250},{"id":5490,"name":"Seoul, South Korea - Seongsu D Tower","dateOpened":"2022-11-10","dateClosed":null,"gps":{"latitude":37.544332,"longitude":127.04416},"stallCount":9,"stalls":{"v3":9},"status":"OPEN","powerKilowatt":250},{"id":5507,"name":"Gimcheon, South Korea - Moda Outlet","dateOpened":"2022-11-10","dateClosed":null,"gps":{"latitude":36.15525,"longitude":128.280846},"stallCount":8,"stalls":{"v3":8},"status":"OPEN","powerKilowatt":250},{"id":5508,"name":"Yangsan, South Korea - Mulgeum Oslo Park","dateOpened":"2022-11-10","dateClosed":null,"gps":{"latitude":35.32755,"longitude":129.011743},"stallCount":6,"stalls":{"v3":6},"status":"OPEN","powerKilowatt":250},{"id":5051,"name":"Bucheon, South Korea","dateOpened":"2022-09-30","dateClosed":null,"gps":{"latitude":37.5026,"longitude":126.775},"stallCount":9,"stalls":{"v3":9},"status":"OPEN","powerKilowatt":250},{"id":5047,"name":"Seoul, South Korea - Geumcheon Mario Outlet","dateOpened":"2022-09-30","dateClosed":null,"gps":{"latitude":37.478,"longitude":126.8872},"stallCount":9,"stalls":{"v3":9},"status":"OPEN","powerKilowatt":250},{"id":5053,"name":"Sokcho, South Korea - Hanwha Resort Seorak","dateOpened":"2022-09-30","dateClosed":null,"gps":{"latitude":38.2081,"longitude":128.5265},"stallCount":6,"stalls":{"v3":6},"status":"OPEN","powerKilowatt":250},{"id":5052,"name":"Busan, South Korea - Centum City","dateOpened":"2022-09-30","dateClosed":null,"gps":{"latitude":35.1696,"longitude":129.1312},"stallCount":6,"stalls":{"v3":6},"status":"OPEN","powerKilowatt":250},{"id":5054,"name":"Chungju, South Korea - Moda Outlet","dateOpened":"2022-09-30","dateClosed":null,"gps":{"latitude":36.961,"longitude":127.8998},"stallCount":8,"stalls":{"v3":8},"status":"OPEN","powerKilowatt":250},{"id":5050,"name":"Goyang, South Korea - Donaedong","dateOpened":"2022-09-30","dateClosed":null,"gps":{"latitude":37.6327,"longitude":126.8647},"stallCount":8,"stalls":{"v3":8},"status":"OPEN","powerKilowatt":250},{"id":5049,"name":"Busan, South Korea - Nongshim Hotel","dateOpened":"2022-09-30","dateClosed":null,"gps":{"latitude":35.2197,"longitude":129.083},"stallCount":6,"stalls":{"v3":6},"status":"OPEN","powerKilowatt":250},{"id":5048,"name":"Guri, South Korea - Moda Outlet","dateOpened":"2022-09-30","dateClosed":null,"gps":{"latitude":37.6333,"longitude":127.1159},"stallCount":8,"stalls":{"v3":8},"status":"OPEN","powerKilowatt":250},{"id":5055,"name":"Hadong, South Korea","dateOpened":"2022-09-30","dateClosed":null,"gps":{"latitude":35.03,"longitude":127.9039},"stallCount":6,"stalls":{"v3":6},"status":"OPEN","powerKilowatt":250},{"id":5019,"name":"Inje, South Korea","dateOpened":"2022-09-28","dateClosed":null,"gps":{"latitude":38.0053,"longitude":128.289},"stallCount":8,"stalls":{"v3":8},"status":"OPEN","powerKilowatt":250},{"id":4564,"name":"Busan, South Korea - Gijang","dateOpened":"2022-09-02","dateClosed":null,"gps":{"latitude":35.19304,"longitude":129.21153},"stallCount":12,"stalls":{"v3":12},"status":"OPEN","powerKilowatt":250},{"id":4395,"name":"Anseong, South Korea","dateOpened":"2022-07-02","dateClosed":null,"gps":{"latitude":36.988973,"longitude":127.265732},"stallCount":6,"stalls":{"v3":6},"status":"OPEN","powerKilowatt":250},{"id":4397,"name":"Seoul, South Korea - Jamsil Lotte World","dateOpened":"2022-07-02","dateClosed":null,"gps":{"latitude":37.511499,"longitude":127.098247},"stallCount":6,"stalls":{"v3":6},"status":"OPEN","powerKilowatt":250},{"id":4394,"name":"Gyeongju, South Korea","dateOpened":"2022-07-02","dateClosed":null,"gps":{"latitude":35.850434,"longitude":129.277112},"stallCount":6,"stalls":{"v3":6},"status":"OPEN","powerKilowatt":250},{"id":4396,"name":"Chuncheon, South Korea - ENTA 2022","dateOpened":"2022-07-02","dateClosed":null,"gps":{"latitude":37.863274,"longitude":127.748106},"stallCount":6,"stalls":{"v3":6},"status":"OPEN","powerKilowatt":250},{"id":4348,"name":"Gyeonggi, South Korea - Gwangju","dateOpened":"2022-06-14","dateClosed":null,"gps":{"latitude":37.403372,"longitude":127.22335},"stallCount":6,"stalls":{"v3":6},"status":"OPEN","powerKilowatt":250},{"id":4346,"name":"Seoul, South Korea - Suyu","dateOpened":"2022-06-14","dateClosed":null,"gps":{"latitude":37.637192,"longitude":127.023378},"stallCount":6,"stalls":{"v3":6},"status":"OPEN","powerKilowatt":250},{"id":4347,"name":"Seoul, South Korea - CCMM Building","dateOpened":"2022-06-14","dateClosed":null,"gps":{"latitude":37.529396,"longitude":126.924755},"stallCount":6,"stalls":{"v3":6},"status":"OPEN","powerKilowatt":250},{"id":4335,"name":"Seoul, South Korea - Times Stream","dateOpened":"2022-06-13","dateClosed":null,"gps":{"latitude":37.4838519,"longitude":126.930193},"stallCount":6,"stalls":{"v3":6},"status":"OPEN","powerKilowatt":250},{"id":4334,"name":"Gwangju, South Korea - Cheomdan","dateOpened":"2022-06-13","dateClosed":null,"gps":{"latitude":35.216576,"longitude":126.849241},"stallCount":6,"stalls":{"v3":6},"status":"OPEN","powerKilowatt":250},{"id":4291,"name":"Gwangyang, South Korea - LF Square","dateOpened":"2022-05-27","dateClosed":null,"gps":{"latitude":34.961728,"longitude":127.565446},"stallCount":6,"stalls":{"v3":6},"status":"OPEN","powerKilowatt":250},{"id":4305,"name":"Seoul, South Korea - Sinsa","dateOpened":"2022-05-16","dateClosed":null,"gps":{"latitude":37.519982,"longitude":127.018977},"stallCount":6,"stalls":{"v3":6},"status":"OPEN","powerKilowatt":250},{"id":4146,"name":"Changwon, South Korea","dateOpened":"2022-04-01","dateClosed":null,"gps":{"latitude":35.22269,"longitude":128.68126},"stallCount":6,"stalls":{"v3":6},"status":"OPEN","powerKilowatt":250},{"id":4145,"name":"Pohang, South Korea","dateOpened":"2022-04-01","dateClosed":null,"gps":{"latitude":36.059093,"longitude":129.320555},"stallCount":12,"stalls":{"v3":12},"status":"OPEN","powerKilowatt":250},{"id":4144,"name":"Jeonju, South Korea","dateOpened":"2022-04-01","dateClosed":null,"gps":{"latitude":35.80698,"longitude":127.11566},"stallCount":8,"stalls":{"v3":8},"status":"OPEN","powerKilowatt":250},{"id":4143,"name":"Daegu, South Korea - Suseong","dateOpened":"2022-04-01","dateClosed":null,"gps":{"latitude":35.82726,"longitude":128.62369},"stallCount":8,"stalls":{"v3":8},"status":"OPEN","powerKilowatt":250},{"id":4142,"name":"Cheongju, South Korea","dateOpened":"2022-03-30","dateClosed":null,"gps":{"latitude":36.66529,"longitude":127.4993},"stallCount":8,"stalls":{"v3":8},"status":"OPEN","powerKilowatt":250},{"id":4114,"name":"Gwanggyo Joongang, South Korea","dateOpened":"2022-03-20","dateClosed":null,"gps":{"latitude":37.28668,"longitude":127.055814},"stallCount":6,"stalls":{"v3":6},"status":"OPEN","powerKilowatt":250},{"id":4115,"name":"Seongnam, South Korea - Pangyo Tech1","dateOpened":"2022-03-20","dateClosed":null,"gps":{"latitude":37.395597,"longitude":127.112063},"stallCount":3,"stalls":{"v3":3},"status":"OPEN","powerKilowatt":250},{"id":4105,"name":"Sejong, South Korea - AK Plaza","dateOpened":"2022-03-15","dateClosed":null,"gps":{"latitude":36.500458,"longitude":127.256765},"stallCount":9,"stalls":{"v3":9},"status":"OPEN","powerKilowatt":250},{"id":4104,"name":"Buyeo, South Korea - Lotte Premium Outlet","dateOpened":"2022-03-15","dateClosed":null,"gps":{"latitude":36.306315,"longitude":126.900404},"stallCount":8,"stalls":{"v3":8},"status":"OPEN","powerKilowatt":250},{"id":3946,"name":"Cheongdo, South Korea","dateOpened":"2021-12-31","dateClosed":null,"gps":{"latitude":35.654083,"longitude":128.749412},"stallCount":6,"stalls":{"v3":6},"status":"OPEN","powerKilowatt":250},{"id":3947,"name":"Jecheon, South Korea","dateOpened":"2021-12-31","dateClosed":null,"gps":{"latitude":37.072695,"longitude":128.191443},"stallCount":8,"stalls":{"v3":8},"status":"OPEN","powerKilowatt":250},{"id":3948,"name":"Yangyang, South Korea - Seolhaewon","dateOpened":"2021-12-31","dateClosed":null,"gps":{"latitude":38.054626,"longitude":128.660877},"stallCount":8,"stalls":{"v3":8},"status":"OPEN","powerKilowatt":250},{"id":3949,"name":"Incheon, South Korea - Chungra Square 7","dateOpened":"2021-12-31","dateClosed":null,"gps":{"latitude":37.532636,"longitude":126.641587},"stallCount":8,"stalls":{"v3":8},"status":"OPEN","powerKilowatt":250},{"id":3928,"name":"Gimpo, South Korea - Gurae","dateOpened":"2021-12-24","dateClosed":null,"gps":{"latitude":37.645455,"longitude":126.63037},"stallCount":6,"stalls":{"v3":6},"status":"OPEN","powerKilowatt":250},{"id":3903,"name":"Pyeongtaek, South Korea - Songtan","dateOpened":"2021-12-15","dateClosed":null,"gps":{"latitude":37.053481,"longitude":127.08031},"stallCount":8,"stalls":{"v3":8},"status":"OPEN","powerKilowatt":250},{"id":3885,"name":"Yeosu, South Korea - Hiddenbay Hotel","dateOpened":"2021-12-10","dateClosed":null,"gps":{"latitude":34.72179,"longitude":127.69945},"stallCount":8,"stalls":{"v3":8},"status":"OPEN","powerKilowatt":250},{"id":3886,"name":"Daejeon Seogu, South Korea","dateOpened":"2021-12-10","dateClosed":null,"gps":{"latitude":36.34078,"longitude":127.389478},"stallCount":6,"stalls":{"v3":6},"status":"OPEN","powerKilowatt":250},{"id":3864,"name":"Pyeongchang, South Korea - Phoenix","dateOpened":"2021-11-27","dateClosed":null,"gps":{"latitude":37.586685,"longitude":128.322039},"stallCount":9,"stalls":{"v3":9},"status":"OPEN","powerKilowatt":250},{"id":3813,"name":"Seoul, South Korea - Cheongnyangni","dateOpened":"2021-11-07","dateClosed":null,"gps":{"latitude":37.579635,"longitude":127.046048},"stallCount":3,"stalls":{"v3":3},"status":"OPEN","powerKilowatt":250},{"id":3793,"name":"Anyang, South Korea - Pyeongchon","dateOpened":"2021-10-31","dateClosed":null,"gps":{"latitude":37.39301,"longitude":126.96228},"stallCount":6,"stalls":{"v3":6},"status":"OPEN","powerKilowatt":250},{"id":3778,"name":"Gwanggyo, South Korea","dateOpened":"2021-10-21","dateClosed":null,"gps":{"latitude":37.293423,"longitude":127.070231},"stallCount":3,"stalls":{"v3":3},"status":"OPEN","powerKilowatt":250},{"id":3745,"name":"Jeju, South Korea - Jeju Store","dateOpened":"2021-10-06","dateClosed":null,"gps":{"latitude":33.492611,"longitude":126.5071},"stallCount":8,"stalls":{"v3":8},"status":"OPEN","powerKilowatt":250},{"id":3725,"name":"Gwangmyeong, South Korea - AK Plaza","dateOpened":"2021-10-01","dateClosed":null,"gps":{"latitude":37.41917204,"longitude":126.88211751},"stallCount":3,"stalls":{"v3":3},"status":"OPEN","powerKilowatt":250},{"id":3729,"name":"Incheon, South Korea - Dongchun","dateOpened":"2021-10-01","dateClosed":null,"gps":{"latitude":37.3959939,"longitude":126.663656},"stallCount":8,"stalls":{"v3":8},"status":"OPEN","powerKilowatt":250},{"id":3703,"name":"Incheon, South Korea - Michuhol Alleyway","dateOpened":"2021-09-27","dateClosed":null,"gps":{"latitude":37.470798,"longitude":126.665855},"stallCount":6,"stalls":{"v3":6},"status":"OPEN","powerKilowatt":250},{"id":3699,"name":"Seoul, South Korea - Songpa Sofitel","dateOpened":"2021-09-25","dateClosed":null,"gps":{"latitude":37.513534,"longitude":127.106174},"stallCount":6,"stalls":{"v3":6},"status":"OPEN","powerKilowatt":250},{"id":3630,"name":"Seoul, South Korea - Gangbuk Paraspara","dateOpened":"2021-09-11","dateClosed":null,"gps":{"latitude":37.66375,"longitude":127.00871},"stallCount":6,"stalls":{"v3":6},"status":"OPEN","powerKilowatt":250},{"id":3627,"name":"Euiwang, South Korea - Lotte Time Villas","dateOpened":"2021-09-10","dateClosed":null,"gps":{"latitude":37.375635,"longitude":127.00947},"stallCount":3,"stalls":{"v3":3},"status":"OPEN","powerKilowatt":250},{"id":3594,"name":"Hwaseong, South Korea - Dongtan Lotte Department Store","dateOpened":"2021-08-19","dateClosed":null,"gps":{"latitude":37.200809,"longitude":127.097418},"stallCount":3,"stalls":{"v3":3},"status":"OPEN","powerKilowatt":250},{"id":3500,"name":"Seoul, South Korea - Seocho Ssangyong Platinum","dateOpened":"2021-07-01","dateClosed":null,"gps":{"latitude":37.48406,"longitude":127.01732},"stallCount":6,"stalls":{"v3":6},"status":"OPEN","powerKilowatt":250},{"id":3497,"name":"Suncheon, South Korea - Joryedong","dateOpened":"2021-07-01","dateClosed":null,"gps":{"latitude":34.96316,"longitude":127.52554},"stallCount":8,"stalls":{"v3":8},"status":"OPEN","powerKilowatt":250},{"id":3477,"name":"Seoul, South Korea - Wangsimni","dateOpened":"2021-06-25","dateClosed":null,"gps":{"latitude":37.5604,"longitude":127.0386},"stallCount":6,"stalls":{"v3":6},"status":"OPEN","powerKilowatt":250},{"id":3476,"name":"Daegu, South Korea - Esiapolis","dateOpened":"2021-06-25","dateClosed":null,"gps":{"latitude":35.9229,"longitude":128.63571},"stallCount":6,"stalls":{"v3":6},"status":"OPEN","powerKilowatt":250},{"id":3475,"name":"Seoul, South Korea - Centerfield","dateOpened":"2021-06-24","dateClosed":null,"gps":{"latitude":37.503216,"longitude":127.04162},"stallCount":6,"stalls":{"v3":6},"status":"OPEN","powerKilowatt":250},{"id":3462,"name":"Seoul, South Korea - Guro G Tower","dateOpened":"2021-06-17","dateClosed":null,"gps":{"latitude":37.47984,"longitude":126.8953},"stallCount":9,"stalls":{"v3":9},"status":"OPEN","powerKilowatt":250},{"id":3355,"name":"Hwaseong, South Korea - BalAn","dateOpened":"2021-04-30","dateClosed":null,"gps":{"latitude":37.13485,"longitude":126.895718},"stallCount":6,"stalls":{"v3":6},"status":"OPEN","powerKilowatt":250},{"id":3356,"name":"Jincheon, South Korea - Root Square","dateOpened":"2021-04-30","dateClosed":null,"gps":{"latitude":36.9422,"longitude":127.43131},"stallCount":8,"stalls":{"v3":8},"status":"OPEN","powerKilowatt":250},{"id":3332,"name":"Chungju, South Korea - Daesowon Home Mart","dateOpened":"2021-04-19","dateClosed":null,"gps":{"latitude":37.0016,"longitude":127.83573},"stallCount":8,"stalls":{"v3":8},"status":"OPEN","powerKilowatt":250},{"id":3284,"name":"Yeoju, South Korea - SSG Premium Outlet","dateOpened":"2021-03-30","dateClosed":null,"gps":{"latitude":37.240451,"longitude":127.613829},"stallCount":8,"stalls":{"v3":8},"status":"OPEN","powerKilowatt":250},{"id":3283,"name":"Goyang, South Korea - Ilsan N2Wash","dateOpened":"2021-03-30","dateClosed":null,"gps":{"latitude":37.629688,"longitude":126.791093},"stallCount":8,"stalls":{"v3":8},"status":"OPEN","powerKilowatt":250},{"id":3285,"name":"Yongin, South Korea - Giheung","dateOpened":"2021-03-30","dateClosed":null,"gps":{"latitude":37.225032,"longitude":127.123109},"stallCount":6,"stalls":{"v3":6},"status":"OPEN","powerKilowatt":250},{"id":2503,"name":"Busan, South Korea - Yeonje","dateOpened":"2020-09-19","dateClosed":null,"gps":{"latitude":35.188372,"longitude":129.110238},"stallCount":4,"stalls":{"v2":4},"status":"OPEN","powerKilowatt":120},{"id":2233,"name":"Seoul, South Korea - N Tower","dateOpened":"2019-12-31","dateClosed":null,"gps":{"latitude":37.499873,"longitude":127.032354},"stallCount":4,"stalls":{"v2":4},"status":"OPEN","powerKilowatt":120},{"id":2224,"name":"Busan, South Korea - Namgu IFC","dateOpened":"2019-12-24","dateClosed":null,"gps":{"latitude":35.148279,"longitude":129.065439},"stallCount":4,"stalls":{"v2":4},"status":"OPEN","powerKilowatt":120},{"id":2226,"name":"Hanam, South Korea - Starfield","dateOpened":"2019-12-24","dateClosed":null,"gps":{"latitude":37.545551,"longitude":127.223682},"stallCount":6,"stalls":{"v2":6},"status":"OPEN","powerKilowatt":120},{"id":2222,"name":"Incheon, South Korea - Songdo Triple Street","dateOpened":"2019-12-24","dateClosed":null,"gps":{"latitude":37.378678,"longitude":126.662796},"stallCount":8,"stalls":{"v3":8},"status":"OPEN","powerKilowatt":250},{"id":2215,"name":"Dangjin, South Korea","dateOpened":"2019-12-20","dateClosed":null,"gps":{"latitude":36.909503,"longitude":126.69407466},"stallCount":4,"stalls":{"v2":4,"accessible":0,"trailerFriendly":0},"status":"OPEN","powerKilowatt":120},{"id":2216,"name":"Seoul, South Korea - Gimpo Airport Lotte Mall","dateOpened":"2019-12-20","dateClosed":null,"gps":{"latitude":37.563265,"longitude":126.803108},"stallCount":4,"stalls":{"v2":4},"status":"OPEN","powerKilowatt":120},{"id":2122,"name":"Seongnam, South Korea - Bundang","dateOpened":"2019-10-02","dateClosed":null,"gps":{"latitude":37.340546,"longitude":127.106848},"stallCount":6,"stalls":{"v2":6},"status":"OPEN","powerKilowatt":120},{"id":2101,"name":"Seoul, South Korea - Apgujeong","dateOpened":"2019-09-11","dateClosed":null,"gps":{"latitude":37.52541809,"longitude":127.02887026},"stallCount":4,"stalls":{"v2":4},"status":"OPEN","powerKilowatt":120},{"id":2029,"name":"Gunsan, South Korea","dateOpened":"2019-07-02","dateClosed":null,"gps":{"latitude":35.937086,"longitude":126.855631},"stallCount":8,"stalls":{"v2":8},"status":"OPEN","powerKilowatt":120},{"id":2020,"name":"Hamyang, South Korea","dateOpened":"2019-06-28","dateClosed":null,"gps":{"latitude":35.524635,"longitude":127.75314},"stallCount":6,"stalls":{"v2":6},"status":"OPEN","powerKilowatt":120},{"id":2013,"name":"Nonsan, South Korea - Laon Village","dateOpened":"2019-06-20","dateClosed":null,"gps":{"latitude":36.12882428,"longitude":127.12962019},"stallCount":4,"stalls":{"v2":4},"status":"OPEN","powerKilowatt":120},{"id":1911,"name":"Shintanjin, South Korea","dateOpened":"2019-04-02","dateClosed":null,"gps":{"latitude":36.423696,"longitude":127.419877},"stallCount":12,"stalls":{"v2":6,"v3":6},"status":"OPEN","powerKilowatt":250},{"id":1806,"name":"Sangju, South Korea","dateOpened":"2018-12-13","dateClosed":null,"gps":{"latitude":36.515931,"longitude":128.1634319},"stallCount":12,"stalls":{"v2":6,"v3":6},"status":"OPEN","powerKilowatt":250},{"id":1804,"name":"Jinju, South Korea - Lotte Mall","dateOpened":"2018-12-12","dateClosed":null,"gps":{"latitude":35.1802627,"longitude":128.1397201},"stallCount":9,"stalls":{"v3":9},"status":"OPEN","powerKilowatt":250},{"id":1553,"name":"Suwon, South Korea - Lotte Mall","dateOpened":"2018-03-27","dateClosed":null,"gps":{"latitude":37.264011,"longitude":126.996636},"stallCount":4,"stalls":{"v2":4},"status":"OPEN","powerKilowatt":120},{"id":1528,"name":"Goyang, South Korea","dateOpened":"2018-03-03","dateClosed":null,"gps":{"latitude":37.661945,"longitude":126.750771},"stallCount":4,"stalls":{"v2":4},"status":"OPEN","powerKilowatt":120},{"id":1459,"name":"Seongnam, South Korea - Pangyo DeTerrace","dateOpened":"2017-12-22","dateClosed":null,"gps":{"latitude":37.403642,"longitude":127.109051},"stallCount":9,"stalls":{"v3":9},"status":"OPEN","powerKilowatt":250},{"id":1460,"name":"Seoul, South Korea - Yongsan Grand Hyatt","dateOpened":"2017-12-22","dateClosed":null,"gps":{"latitude":37.539341,"longitude":126.997137},"stallCount":4,"stalls":{"v2":4},"status":"OPEN","powerKilowatt":120},{"id":1440,"name":"Seogwipo, South Korea - Lotte Hotel","dateOpened":"2017-12-12","dateClosed":null,"gps":{"latitude":33.249844,"longitude":126.409044},"stallCount":12,"stalls":{"v2":12},"status":"OPEN","powerKilowatt":120},{"id":1418,"name":"Sokcho, South Korea - Lotte Resort","dateOpened":"2017-12-01","dateClosed":null,"gps":{"latitude":38.180856,"longitude":128.611593},"stallCount":7,"stalls":{"v2":4,"v3":3},"status":"OPEN","powerKilowatt":250},{"id":1396,"name":"Gangneung, South Korea - Lakai Sandpine","dateOpened":"2017-11-16","dateClosed":null,"gps":{"latitude":37.80534,"longitude":128.904599},"stallCount":8,"stalls":{"v3":8},"status":"OPEN","powerKilowatt":250},{"id":1327,"name":"Gwangju, South Korea - Holiday Inn","dateOpened":"2017-10-09","dateClosed":null,"gps":{"latitude":35.147921,"longitude":126.837407},"stallCount":6,"stalls":{"v2":6},"status":"OPEN","powerKilowatt":115},{"id":1328,"name":"Seoul, South Korea - Lotte World Tower","dateOpened":"2017-10-09","dateClosed":null,"gps":{"latitude":37.513395,"longitude":127.102238},"stallCount":6,"stalls":{"v2":6},"status":"OPEN","powerKilowatt":120},{"id":1196,"name":"Busan, South Korea - Haewoondae Paradise","dateOpened":"2017-07-17","dateClosed":null,"gps":{"latitude":35.160676,"longitude":129.163823},"stallCount":3,"stalls":{"v3":3},"status":"OPEN","powerKilowatt":250},{"id":1154,"name":"Daegu, South Korea - EXCO","dateOpened":"2017-06-19","dateClosed":null,"gps":{"latitude":35.907022,"longitude":128.613115},"stallCount":6,"stalls":{"v2":6},"status":"OPEN","powerKilowatt":120},{"id":1153,"name":"Seoul, South Korea - Yeoido IFC","dateOpened":"2017-06-19","dateClosed":null,"gps":{"latitude":37.52526,"longitude":126.925714},"stallCount":4,"stalls":{"v3":4},"status":"OPEN","powerKilowatt":250},{"id":1132,"name":"Wonju, South Korea - Oak Valley","dateOpened":"2017-06-18","dateClosed":null,"gps":{"latitude":37.435072,"longitude":127.818718},"stallCount":6,"stalls":{"v2":6},"status":"OPEN","powerKilowatt":120},{"id":1116,"name":"Cheonan, South Korea - Sono Belle","dateOpened":"2017-05-31","dateClosed":null,"gps":{"latitude":36.755229,"longitude":127.224454},"stallCount":6,"stalls":{"v2":6,"accessible":0,"trailerFriendly":0},"status":"OPEN","powerKilowatt":120},{"id":1115,"name":"Seoul, South Korea - Gangnam","dateOpened":"2017-05-31","dateClosed":null,"gps":{"latitude":37.509215,"longitude":127.06079},"stallCount":5,"stalls":{"v2":5},"status":"OPEN","powerKilowatt":120},{"id":1130,"name":"Seoul, South Korea - Jongno","dateOpened":"2017-06-12","dateClosed":"2024-06-14","gps":{"latitude":37.570693,"longitude":126.981511},"stallCount":6,"stalls":{"v2":6},"status":"CLOSED_PERM","powerKilowatt":120},{"id":6167,"name":"Busan, South Korea - KNN Tower","dateOpened":"2023-04-17","dateClosed":"2024-09-26","gps":{"latitude":35.171962,"longitude":129.128564},"stallCount":6,"stalls":{"v3":6},"status":"CLOSED_PERM","powerKilowatt":250},{"id":2223,"name":"Busan, South Korea - Gangseo","dateOpened":"2019-12-23","dateClosed":"2025-10-05","gps":{"latitude":35.219392,"longitude":128.988331},"stallCount":6,"stalls":{"v2":6},"status":"CLOSED_TEMP","powerKilowatt":120},{"id":2225,"name":"Gapyeong, South Korea - Seorak","dateOpened":"2019-12-23","dateClosed":"2025-04-05","gps":{"latitude":37.686451,"longitude":127.49363},"stallCount":6,"stalls":{"v2":6},"status":"CLOSED_TEMP","powerKilowatt":120}]
